[
    {
        "OID": "1",
        "Name": "石碇服務區",
        "Type": "泊點",
        "HotWater": "1",
        "Toilet": "0",
        "Longitude": "121.643913",
        "Latitude": "25.009011"
    },
    {
        "OID": "2",
        "Name": "泰安休息站",
        "Type": "泊點",
        "HotWater": "1",
        "Toilet": "0",
        "Longitude": "120.711272",
        "Latitude": "24.330168"
    },
    {
        "OID": "3",
        "Name": "新營服務區",
        "Type": "泊點",
        "HotWater": "1",
        "Toilet": "0",
        "Longitude": "120.311985",
        "Latitude": "23.340714"
    },
    {
        "OID": "4",
        "Name": "兆豐農場露天溫泉",
        "Type": "泊點",
        "HotWater": "1",
        "Toilet": "0",
        "Longitude": "121.453973",
        "Latitude": "23.808617"
    },
    {
        "OID": "5",
        "Name": "墾丁石牛溪農場",
        "Type": "泊點",
        "HotWater": "1",
        "Toilet": "0",
        "Longitude": "120.784712",
        "Latitude": "21.949637"
    },
    {
        "OID": "6",
        "Name": "都蘭派出所",
        "Type": "泊點",
        "HotWater": "1",
        "Toilet": "0",
        "Longitude": "121.22892",
        "Latitude": "22.875774"
    },
    {
        "OID": "7",
        "Name": "勇男橋下",
        "Type": "泊點",
        "HotWater": "1",
        "Toilet": "1",
        "Longitude": "121.014949",
        "Latitude": "22.693457"
    },
    {
        "OID": "8",
        "Name": "白楊停車場",
        "Type": "泊點",
        "HotWater": "1",
        "Toilet": "1",
        "Longitude": "121.490062",
        "Latitude": "24.187088"
    },
    {
        "OID": "9",
        "Name": "南澳農場",
        "Type": "泊點",
        "HotWater": "1",
        "Toilet": "0",
        "Longitude": "121.788935",
        "Latitude": "24.449413"
    },
    {
        "OID": "10",
        "Name": "車城四重溪公共溫泉",
        "Type": "泊點",
        "HotWater": "1",
        "Toilet": "0",
        "Longitude": "120.747976",
        "Latitude": "22.094515"
    },
    {
        "OID": "11",
        "Name": "石?童軍營區",
        "Type": "泊點",
        "HotWater": "1",
        "Toilet": "0",
        "Longitude": "120.57352",
        "Latitude": "23.396254"
    },
    {
        "OID": "12",
        "Name": "南化雲山寺",
        "Type": "泊點",
        "HotWater": "1",
        "Toilet": "0",
        "Longitude": "120.545807",
        "Latitude": "23.068863"
    },
    {
        "OID": "13",
        "Name": "拉拉山天源宮",
        "Type": "泊點",
        "HotWater": "1",
        "Toilet": "0",
        "Longitude": "121.407932",
        "Latitude": "24.68875"
    },
    {
        "OID": "14",
        "Name": "陽明山冷水坑",
        "Type": "泊點",
        "HotWater": "1",
        "Toilet": "0",
        "Longitude": "121.563889",
        "Latitude": "25.166006"
    },
    {
        "OID": "15",
        "Name": "金山豐漁社區公共浴室",
        "Type": "泊點",
        "HotWater": "1",
        "Toilet": "0",
        "Longitude": "121.644453",
        "Latitude": "25.222414"
    },
    {
        "OID": "16",
        "Name": "樟原派出所",
        "Type": "泊點",
        "HotWater": "1",
        "Toilet": "0",
        "Longitude": "121.482649",
        "Latitude": "23.412937"
    },
    {
        "OID": "17",
        "Name": "花蓮港天宮",
        "Type": "泊點",
        "HotWater": "1",
        "Toilet": "0",
        "Longitude": "121.587152",
        "Latitude": "24.007374"
    },
    {
        "OID": "18",
        "Name": "西寶國小",
        "Type": "泊點",
        "HotWater": "1",
        "Toilet": "0",
        "Longitude": "121.482486",
        "Latitude": "24.20703"
    },
    {
        "OID": "19",
        "Name": "宜蘭大溪國小",
        "Type": "泊點",
        "HotWater": "0",
        "Toilet": "0",
        "Longitude": "121.886435",
        "Latitude": "24.936123"
    },
    {
        "OID": "20",
        "Name": "台灣中油(直營)關原站",
        "Type": "泊點",
        "HotWater": "1",
        "Toilet": "1",
        "Longitude": "121.3421073",
        "Latitude": "24.1850068"
    },
    {
        "OID": "21",
        "Name": "金馬隧道",
        "Type": "泊點",
        "HotWater": "1",
        "Toilet": "0",
        "Longitude": "121.3714133",
        "Latitude": "24.1772366"
    },
    {
        "OID": "22",
        "Name": "新白楊服務站",
        "Type": "泊點",
        "HotWater": "1",
        "Toilet": "0",
        "Longitude": "121.4330709",
        "Latitude": "24.1981077"
    },
    {
        "OID": "23",
        "Name": "溪頭國家森林遊樂區",
        "Type": "泊點",
        "HotWater": "1",
        "Toilet": "0",
        "Longitude": "120.7982029",
        "Latitude": "23.6722621"
    },
    {
        "OID": "24",
        "Name": "勸濟堂",
        "Type": "泊點",
        "HotWater": "1",
        "Toilet": "0",
        "Longitude": "121.8596543",
        "Latitude": "25.1103401"
    },
    {
        "OID": "25",
        "Name": "外木山漁港",
        "Type": "泊點",
        "HotWater": "1",
        "Toilet": "0",
        "Longitude": "121.733231",
        "Latitude": "25.159313"
    },
    {
        "OID": "26",
        "Name": "外木山海水游泳池",
        "Type": "泊點",
        "HotWater": "1",
        "Toilet": "0",
        "Longitude": "121.7323042",
        "Latitude": "25.1612894"
    },
    {
        "OID": "27",
        "Name": "文武廟停車場",
        "Type": "泊點",
        "HotWater": "1",
        "Toilet": "0",
        "Longitude": "120.9269016",
        "Latitude": "23.8699693"
    },
    {
        "OID": "28",
        "Name": "張學良故居",
        "Type": "泊點",
        "HotWater": "0",
        "Toilet": "0",
        "Longitude": "121.1041922",
        "Latitude": "24.5760412"
    },
    {
        "OID": "29",
        "Name": "銀杏森林",
        "Type": "泊點",
        "HotWater": "1",
        "Toilet": "0",
        "Longitude": "120.7623682",
        "Latitude": "23.6797159"
    },
    {
        "OID": "30",
        "Name": "雪山登山口服務站",
        "Type": "泊點",
        "HotWater": "1",
        "Toilet": "0",
        "Longitude": "121.2987942",
        "Latitude": "24.3858463"
    },
    {
        "OID": "31",
        "Name": "谷關遊客中心",
        "Type": "泊點",
        "HotWater": "1",
        "Toilet": "1",
        "Longitude": "121.0067764",
        "Latitude": "24.2033236"
    },
    {
        "OID": "32",
        "Name": "台中市政府警察局和平分局谷關派出所",
        "Type": "泊點",
        "HotWater": "1",
        "Toilet": "0",
        "Longitude": "121.0065173",
        "Latitude": "24.2029588"
    },
    {
        "OID": "33",
        "Name": "和平谷關郵局豐原19支局",
        "Type": "泊點",
        "HotWater": "1",
        "Toilet": "0",
        "Longitude": "121.005605",
        "Latitude": "24.203037"
    },
    {
        "OID": "34",
        "Name": "龍門漁港安檢所",
        "Type": "泊點",
        "HotWater": "1",
        "Toilet": "0",
        "Longitude": "121.936662",
        "Latitude": "25.0237019"
    },
    {
        "OID": "35",
        "Name": "龍鳳漁港",
        "Type": "泊點",
        "HotWater": "1",
        "Toilet": "1",
        "Longitude": "120.8582764",
        "Latitude": "24.6997509"
    },
    {
        "OID": "36",
        "Name": "清境農場第一停車場",
        "Type": "泊點",
        "HotWater": "1",
        "Toilet": "0",
        "Longitude": "121.1574423",
        "Latitude": "24.0443399"
    },
    {
        "OID": "37",
        "Name": "合歡山遊客服務中心停車場",
        "Type": "泊點",
        "HotWater": "1",
        "Toilet": "0",
        "Longitude": "121.2842801",
        "Latitude": "24.1421418"
    },
    {
        "OID": "38",
        "Name": "小風口停車場",
        "Type": "泊點",
        "HotWater": "1",
        "Toilet": "1",
        "Longitude": "121.2870096",
        "Latitude": "24.1616528"
    },
    {
        "OID": "39",
        "Name": "宜蘭縣政府",
        "Type": "泊點",
        "HotWater": "1",
        "Toilet": "0",
        "Longitude": "121.7632217",
        "Latitude": "24.7309182"
    },
    {
        "OID": "40",
        "Name": "羅東運動公園",
        "Type": "泊點",
        "HotWater": "1",
        "Toilet": "0",
        "Longitude": "121.7500009",
        "Latitude": "24.6849709"
    },
    {
        "OID": "41",
        "Name": "點 46",
        "Type": "泊點",
        "HotWater": "1",
        "Toilet": "0",
        "Longitude": "121.8164492",
        "Latitude": "24.6695896"
    },
    {
        "OID": "42",
        "Name": "五峰旗瀑布停車場",
        "Type": "泊點",
        "HotWater": "0",
        "Toilet": "0",
        "Longitude": "121.747047",
        "Latitude": "24.8315519"
    },
    {
        "OID": "43",
        "Name": "湯圍溝溫泉公園",
        "Type": "泊點",
        "HotWater": "1",
        "Toilet": "0",
        "Longitude": "121.7698968",
        "Latitude": "24.8287752"
    },
    {
        "OID": "44",
        "Name": "二萬阿里山停車場",
        "Type": "泊點",
        "HotWater": "0",
        "Toilet": "0",
        "Longitude": "120.790601",
        "Latitude": "23.5090894"
    },
    {
        "OID": "45",
        "Name": "仙山靈洞宮停車場",
        "Type": "泊點",
        "HotWater": "1",
        "Toilet": "1",
        "Longitude": "120.9482342",
        "Latitude": "24.5419702"
    },
    {
        "OID": "46",
        "Name": "玉泉宮",
        "Type": "泊點",
        "HotWater": "1",
        "Toilet": "1",
        "Longitude": "121.66487",
        "Latitude": "25.081775"
    },
    {
        "OID": "47",
        "Name": "牡丹社事件紀念公園",
        "Type": "泊點",
        "HotWater": "1",
        "Toilet": "0",
        "Longitude": "120.7648767",
        "Latitude": "22.1165868"
    },
    {
        "OID": "48",
        "Name": "小雪山莊(有廁)",
        "Type": "泊點",
        "HotWater": "1",
        "Toilet": "0",
        "Longitude": "121.0258105",
        "Latitude": "24.2794831"
    },
    {
        "OID": "49",
        "Name": "嶺頂公園",
        "Type": "泊點",
        "HotWater": "1",
        "Toilet": "0",
        "Longitude": "120.5034909",
        "Latitude": "23.3382816"
    },
    {
        "OID": "50",
        "Name": "崁頂福安宮",
        "Type": "泊點",
        "HotWater": "0",
        "Toilet": "0",
        "Longitude": "120.5029483",
        "Latitude": "23.2975856"
    },
    {
        "OID": "51",
        "Name": "湖濱公園",
        "Type": "泊點",
        "HotWater": "0",
        "Toilet": "0",
        "Longitude": "120.5842464",
        "Latitude": "23.2990186"
    },
    {
        "OID": "52",
        "Name": "新光國小",
        "Type": "泊點",
        "HotWater": "1",
        "Toilet": "0",
        "Longitude": "121.3032009",
        "Latitude": "24.5799355"
    },
    {
        "OID": "53",
        "Name": "紫微天后宮",
        "Type": "泊點",
        "HotWater": "1",
        "Toilet": "1",
        "Longitude": "121.422078",
        "Latitude": "24.90879"
    },
    {
        "OID": "54",
        "Name": "石門山勞工育樂中心",
        "Type": "泊點",
        "HotWater": "1",
        "Toilet": "0",
        "Longitude": "121.2317303",
        "Latitude": "24.8190263"
    },
    {
        "OID": "55",
        "Name": "竹崎親水公園",
        "Type": "泊點",
        "HotWater": "1",
        "Toilet": "0",
        "Longitude": "120.5471835",
        "Latitude": "23.524267"
    },
    {
        "OID": "56",
        "Name": "水火同源停車場",
        "Type": "泊點",
        "HotWater": "1",
        "Toilet": "1",
        "Longitude": "120.483237",
        "Latitude": "23.321898"
    },
    {
        "OID": "57",
        "Name": "大波池停車場",
        "Type": "泊點",
        "HotWater": "1",
        "Toilet": "0",
        "Longitude": "121.2226188",
        "Latitude": "23.1203016"
    },
    {
        "OID": "58",
        "Name": "台東森林公園",
        "Type": "泊點",
        "HotWater": "1",
        "Toilet": "0",
        "Longitude": "121.1477704",
        "Latitude": "22.7749421"
    },
    {
        "OID": "59",
        "Name": "昆陽休息站",
        "Type": "泊點",
        "HotWater": "1",
        "Toilet": "0",
        "Longitude": "121.2725261",
        "Latitude": "24.1229757"
    },
    {
        "OID": "60",
        "Name": "都歷處本部遊客中心",
        "Type": "泊點",
        "HotWater": "1",
        "Toilet": "1",
        "Longitude": "121.3249612",
        "Latitude": "23.0203464"
    },
    {
        "OID": "61",
        "Name": "石門水庫管理中心",
        "Type": "泊點",
        "HotWater": "1",
        "Toilet": "0",
        "Longitude": "121.247616",
        "Latitude": "24.811535"
    },
    {
        "OID": "62",
        "Name": "旭海大草原停車場",
        "Type": "泊點",
        "HotWater": "1",
        "Toilet": "1",
        "Longitude": "120.8848116",
        "Latitude": "22.2046016"
    },
    {
        "OID": "63",
        "Name": "鹿谷麒麟潭",
        "Type": "泊點",
        "HotWater": "1",
        "Toilet": "1",
        "Longitude": "120.772174",
        "Latitude": "23.7512317"
    },
    {
        "OID": "64",
        "Name": "砂島貝殼館",
        "Type": "泊點",
        "HotWater": "1",
        "Toilet": "1",
        "Longitude": "120.8476648",
        "Latitude": "21.912685"
    },
    {
        "OID": "65",
        "Name": "關山夕照泊點",
        "Type": "泊點",
        "HotWater": "1",
        "Toilet": "0",
        "Longitude": "120.7196376",
        "Latitude": "21.9649324"
    },
    {
        "OID": "66",
        "Name": "礁溪龍潭湖",
        "Type": "泊點",
        "HotWater": "1",
        "Toilet": "1",
        "Longitude": "121.7399043",
        "Latitude": "24.7924496"
    },
    {
        "OID": "67",
        "Name": "墾丁大街.麥當勞後面停車場",
        "Type": "泊點",
        "HotWater": "1",
        "Toilet": "1",
        "Longitude": "120.7939696",
        "Latitude": "21.9463469"
    },
    {
        "OID": "68",
        "Name": "依山閣",
        "Type": "泊點",
        "HotWater": "1",
        "Toilet": "0",
        "Longitude": "121.240348",
        "Latitude": "24.811285"
    },
    {
        "OID": "69",
        "Name": "鵝鸞鼻大停車場",
        "Type": "泊點",
        "HotWater": "1",
        "Toilet": "0",
        "Longitude": "120.8513153",
        "Latitude": "21.9047516"
    },
    {
        "OID": "70",
        "Name": "後灣小廟",
        "Type": "泊點",
        "HotWater": "1",
        "Toilet": "0",
        "Longitude": "120.696566",
        "Latitude": "22.039489"
    },
    {
        "OID": "71",
        "Name": "合界休息區有水廁",
        "Type": "泊點",
        "HotWater": "1",
        "Toilet": "0",
        "Longitude": "120.710598",
        "Latitude": "21.98859"
    },
    {
        "OID": "72",
        "Name": "海口故事園區(封園中...)",
        "Type": "泊點",
        "HotWater": "0",
        "Toilet": "0",
        "Longitude": "120.14173",
        "Latitude": "23.582203"
    },
    {
        "OID": "73",
        "Name": "源之旅休閒公園",
        "Type": "泊點",
        "HotWater": "1",
        "Toilet": "0",
        "Longitude": "120.533975",
        "Latitude": "23.092524"
    },
    {
        "OID": "74",
        "Name": "阿里山多林停車場",
        "Type": "泊點",
        "HotWater": "1",
        "Toilet": "0",
        "Longitude": "120.712395",
        "Latitude": "23.500479"
    },
    {
        "OID": "75",
        "Name": "迷糊步道下層停車場",
        "Type": "泊點",
        "HotWater": "1",
        "Toilet": "0",
        "Longitude": "120.717304",
        "Latitude": "23.476961"
    },
    {
        "OID": "76",
        "Name": "塔塔加停車場",
        "Type": "泊點",
        "HotWater": "1",
        "Toilet": "0",
        "Longitude": "120.8893438",
        "Latitude": "23.4871918"
    },
    {
        "OID": "77",
        "Name": "東埔吊橋停車場",
        "Type": "泊點",
        "HotWater": "1",
        "Toilet": "0",
        "Longitude": "120.922371",
        "Latitude": "23.561023"
    },
    {
        "OID": "78",
        "Name": "朝霧停車場",
        "Type": "泊點",
        "HotWater": "1",
        "Toilet": "1",
        "Longitude": "120.915569",
        "Latitude": "23.867119"
    },
    {
        "OID": "79",
        "Name": "玄光寺停車場",
        "Type": "泊點",
        "HotWater": "1",
        "Toilet": "0",
        "Longitude": "120.9131603",
        "Latitude": "23.8520622"
    },
    {
        "OID": "80",
        "Name": "伊達邵遊客中心",
        "Type": "泊點",
        "HotWater": "1",
        "Toilet": "0",
        "Longitude": "120.9293881",
        "Latitude": "23.8488689"
    },
    {
        "OID": "81",
        "Name": "文武廟後山停車場",
        "Type": "泊點",
        "HotWater": "1",
        "Toilet": "1",
        "Longitude": "120.928416",
        "Latitude": "23.869693"
    },
    {
        "OID": "82",
        "Name": "車埕車站停車場",
        "Type": "泊點",
        "HotWater": "1",
        "Toilet": "1",
        "Longitude": "120.867128",
        "Latitude": "23.833776"
    },
    {
        "OID": "83",
        "Name": "東石漁人碼頭",
        "Type": "泊點",
        "HotWater": "1",
        "Toilet": "0",
        "Longitude": "120.135266",
        "Latitude": "23.451636"
    },
    {
        "OID": "84",
        "Name": "森林之歌",
        "Type": "泊點",
        "HotWater": "1",
        "Toilet": "1",
        "Longitude": "120.448749",
        "Latitude": "23.485913"
    },
    {
        "OID": "85",
        "Name": "砂卡礑步道停車場",
        "Type": "泊點",
        "HotWater": "1",
        "Toilet": "0",
        "Longitude": "121.613129",
        "Latitude": "24.161265"
    },
    {
        "OID": "86",
        "Name": "碧雲寺停車場",
        "Type": "泊點",
        "HotWater": "1",
        "Toilet": "1",
        "Longitude": "120.4803067",
        "Latitude": "23.3251292"
    },
    {
        "OID": "87",
        "Name": "火山碧雲寺",
        "Type": "泊點",
        "HotWater": "1",
        "Toilet": "0",
        "Longitude": "120.4808585",
        "Latitude": "23.3252316"
    },
    {
        "OID": "88",
        "Name": "草嶺慶雲宮?大里天公廟",
        "Type": "泊點",
        "HotWater": "1",
        "Toilet": "0",
        "Longitude": "121.9249421",
        "Latitude": "24.9697997"
    },
    {
        "OID": "89",
        "Name": "松山慈惠堂",
        "Type": "泊點",
        "HotWater": "1",
        "Toilet": "0",
        "Longitude": "121.5874838",
        "Latitude": "25.0365198"
    },
    {
        "OID": "90",
        "Name": "大湖分局泰安分駐所",
        "Type": "泊點",
        "HotWater": "1",
        "Toilet": "0",
        "Longitude": "120.9074596",
        "Latitude": "24.4477748"
    },
    {
        "OID": "91",
        "Name": "南苑停車場",
        "Type": "泊點",
        "HotWater": "1",
        "Toilet": "0",
        "Longitude": "121.2485098",
        "Latitude": "24.8164448"
    },
    {
        "OID": "92",
        "Name": "阿姆坪停車場",
        "Type": "泊點",
        "HotWater": "1",
        "Toilet": "0",
        "Longitude": "121.303476",
        "Latitude": "24.814678"
    },
    {
        "OID": "93",
        "Name": "停車場",
        "Type": "泊點",
        "HotWater": "1",
        "Toilet": "1",
        "Longitude": "120.977435",
        "Latitude": "24.47119"
    },
    {
        "OID": "94",
        "Name": "成功鎮農會農特產品展售中心",
        "Type": "泊點",
        "HotWater": "1",
        "Toilet": "0",
        "Longitude": "121.4000078",
        "Latitude": "23.1557233"
    },
    {
        "OID": "95",
        "Name": "新月沙灣",
        "Type": "泊點",
        "HotWater": "1",
        "Toilet": "0",
        "Longitude": "120.942843",
        "Latitude": "24.8669844"
    },
    {
        "OID": "96",
        "Name": "七星潭停車場",
        "Type": "泊點",
        "HotWater": "1",
        "Toilet": "1",
        "Longitude": "121.6266909",
        "Latitude": "24.0301718"
    },
    {
        "OID": "97",
        "Name": "圖書館停車場",
        "Type": "泊點",
        "HotWater": "1",
        "Toilet": "0",
        "Longitude": "120.2117157",
        "Latitude": "23.0040586"
    },
    {
        "OID": "98",
        "Name": "石碇淡蘭吊橋停車場",
        "Type": "泊點",
        "HotWater": "1",
        "Toilet": "0",
        "Longitude": "121.6517884",
        "Latitude": "25.0054695"
    },
    {
        "OID": "99",
        "Name": "向山行政暨遊客中心",
        "Type": "泊點",
        "HotWater": "1",
        "Toilet": "0",
        "Longitude": "120.9021163",
        "Latitude": "23.8511451"
    },
    {
        "OID": "100",
        "Name": "八卦山風景區第一停車場",
        "Type": "泊點",
        "HotWater": "1",
        "Toilet": "0",
        "Longitude": "120.5492269",
        "Latitude": "24.0774352"
    },
    {
        "OID": "101",
        "Name": "伍龍殿",
        "Type": "泊點",
        "HotWater": "1",
        "Toilet": "1",
        "Longitude": "120.5609373",
        "Latitude": "23.1863402"
    },
    {
        "OID": "102",
        "Name": "八仙洞停車場",
        "Type": "泊點",
        "HotWater": "1",
        "Toilet": "0",
        "Longitude": "121.4758211",
        "Latitude": "23.3939871"
    },
    {
        "OID": "103",
        "Name": "台南縣左鎮鄉岡林國民小學",
        "Type": "泊點",
        "HotWater": "1",
        "Toilet": "0",
        "Longitude": "120.414557",
        "Latitude": "23.007361"
    },
    {
        "OID": "104",
        "Name": "南化水庫",
        "Type": "泊點",
        "HotWater": "1",
        "Toilet": "0",
        "Longitude": "120.537778",
        "Latitude": "23.089444"
    },
    {
        "OID": "105",
        "Name": "金光山厚德紫竹寺",
        "Type": "泊點",
        "HotWater": "1",
        "Toilet": "0",
        "Longitude": "120.500721",
        "Latitude": "23.0300946"
    },
    {
        "OID": "106",
        "Name": "730林道泊點",
        "Type": "泊點",
        "HotWater": "1",
        "Toilet": "0",
        "Longitude": "121.283224",
        "Latitude": "24.301122"
    },
    {
        "OID": "107",
        "Name": "大雪山林道路邊停車場",
        "Type": "泊點",
        "HotWater": "1",
        "Toilet": "1",
        "Longitude": "120.953515",
        "Latitude": "24.234534"
    },
    {
        "OID": "108",
        "Name": "台中市政府警察局和平分局大棟派出所",
        "Type": "泊點",
        "HotWater": "1",
        "Toilet": "0",
        "Longitude": "120.9072567",
        "Latitude": "24.2410261"
    },
    {
        "OID": "109",
        "Name": "遠雄海洋公園",
        "Type": "泊點",
        "HotWater": "1",
        "Toilet": "1",
        "Longitude": "121.6015666",
        "Latitude": "23.9013142"
    },
    {
        "OID": "110",
        "Name": "太平洋公園",
        "Type": "泊點",
        "HotWater": "1",
        "Toilet": "0",
        "Longitude": "121.6092856",
        "Latitude": "23.9663369"
    },
    {
        "OID": "111",
        "Name": "南安國小",
        "Type": "泊點",
        "HotWater": "1",
        "Toilet": "0",
        "Longitude": "121.8678532",
        "Latitude": "24.5786623"
    },
    {
        "OID": "112",
        "Name": "千禧曙光紀念園區",
        "Type": "泊點",
        "HotWater": "1",
        "Toilet": "1",
        "Longitude": "121.0106888",
        "Latitude": "22.6168022"
    },
    {
        "OID": "113",
        "Name": "屏東縣三地門鄉立圖書館",
        "Type": "泊點",
        "HotWater": "1",
        "Toilet": "0",
        "Longitude": "120.6542159",
        "Latitude": "22.715686"
    },
    {
        "OID": "114",
        "Name": "伯勞鳥生態展示館/楓港",
        "Type": "泊點",
        "HotWater": "1",
        "Toilet": "1",
        "Longitude": "120.6921171",
        "Latitude": "22.1896623"
    },
    {
        "OID": "115",
        "Name": "四草大眾廟",
        "Type": "泊點",
        "HotWater": "1",
        "Toilet": "1",
        "Longitude": "120.1351658",
        "Latitude": "23.0197839"
    },
    {
        "OID": "116",
        "Name": "福興宮",
        "Type": "泊點",
        "HotWater": "1",
        "Toilet": "0",
        "Longitude": "120.4605591",
        "Latitude": "23.8016155"
    },
    {
        "OID": "117",
        "Name": "廣福宮",
        "Type": "泊點",
        "HotWater": "1",
        "Toilet": "0",
        "Longitude": "120.464692",
        "Latitude": "23.7972059"
    },
    {
        "OID": "118",
        "Name": "大眾爺祠",
        "Type": "泊點",
        "HotWater": "1",
        "Toilet": "0",
        "Longitude": "120.7798489",
        "Latitude": "23.8286742"
    },
    {
        "OID": "119",
        "Name": "渚橋休息區",
        "Type": "泊點",
        "HotWater": "1",
        "Toilet": "0",
        "Longitude": "121.2036359",
        "Latitude": "22.8615169"
    },
    {
        "OID": "120",
        "Name": "金樽遊憩區",
        "Type": "泊點",
        "HotWater": "1",
        "Toilet": "0",
        "Longitude": "121.2801149",
        "Latitude": "22.9454759"
    },
    {
        "OID": "121",
        "Name": "十分旅遊服務中心",
        "Type": "泊點",
        "HotWater": "1",
        "Toilet": "0",
        "Longitude": "121.7829325",
        "Latitude": "25.0473793"
    },
    {
        "OID": "122",
        "Name": "虎頭山公園",
        "Type": "泊點",
        "HotWater": "1",
        "Toilet": "0",
        "Longitude": "121.3309308",
        "Latitude": "25.0017706"
    },
    {
        "OID": "123",
        "Name": "竹圍碼頭",
        "Type": "泊點",
        "HotWater": "1",
        "Toilet": "0",
        "Longitude": "121.2429489",
        "Latitude": "25.1191502"
    },
    {
        "OID": "124",
        "Name": "大園濱海遊?區服務中心",
        "Type": "泊點",
        "HotWater": "1",
        "Toilet": "0",
        "Longitude": "121.242617",
        "Latitude": "25.1142578"
    },
    {
        "OID": "125",
        "Name": "桃園國際棒球場",
        "Type": "泊點",
        "HotWater": "1",
        "Toilet": "0",
        "Longitude": "121.201789",
        "Latitude": "25.002054"
    },
    {
        "OID": "126",
        "Name": "梨山遊客中心",
        "Type": "泊點",
        "HotWater": "1",
        "Toilet": "1",
        "Longitude": "121.251159",
        "Latitude": "24.254731"
    },
    {
        "OID": "127",
        "Name": "福壽山農場旅遊服務中心",
        "Type": "泊點",
        "HotWater": "1",
        "Toilet": "0",
        "Longitude": "121.245787",
        "Latitude": "24.244908"
    },
    {
        "OID": "128",
        "Name": "觀音山遊客中心",
        "Type": "泊點",
        "HotWater": "1",
        "Toilet": "1",
        "Longitude": "121.418769",
        "Latitude": "25.128923"
    },
    {
        "OID": "129",
        "Name": "興達港",
        "Type": "泊點",
        "HotWater": "1",
        "Toilet": "1",
        "Longitude": "120.2057398",
        "Latitude": "22.8624224"
    },
    {
        "OID": "130",
        "Name": "興達港情人碼頭",
        "Type": "泊點",
        "HotWater": "1",
        "Toilet": "0",
        "Longitude": "120.211721",
        "Latitude": "22.8777329"
    },
    {
        "OID": "131",
        "Name": "三清宮",
        "Type": "泊點",
        "HotWater": "1",
        "Toilet": "1",
        "Longitude": "120.194032",
        "Latitude": "22.8637009"
    },
    {
        "OID": "132",
        "Name": "龜山步道入口",
        "Type": "泊點",
        "HotWater": "1",
        "Toilet": "0",
        "Longitude": "120.7039822",
        "Latitude": "22.0496813"
    },
    {
        "OID": "133",
        "Name": "台南二寮觀日亭",
        "Type": "泊點",
        "HotWater": "1",
        "Toilet": "1",
        "Longitude": "120.4101207",
        "Latitude": "22.9956107"
    },
    {
        "OID": "134",
        "Name": "吊橋停車場",
        "Type": "泊點",
        "HotWater": "1",
        "Toilet": "0",
        "Longitude": "120.431105",
        "Latitude": "23.005567"
    },
    {
        "OID": "135",
        "Name": "魚路古道",
        "Type": "泊點",
        "HotWater": "1",
        "Toilet": "0",
        "Longitude": "121.5621472",
        "Latitude": "25.1516644"
    },
    {
        "OID": "136",
        "Name": "大武鄉第一停車場",
        "Type": "泊點",
        "HotWater": "1",
        "Toilet": "0",
        "Longitude": "120.9066166",
        "Latitude": "22.3624101"
    },
    {
        "OID": "137",
        "Name": "大武鄉金龍湖",
        "Type": "泊點",
        "HotWater": "1",
        "Toilet": "0",
        "Longitude": "120.8900169",
        "Latitude": "22.3525739"
    },
    {
        "OID": "138",
        "Name": "蝙蝠洞公園",
        "Type": "泊點",
        "HotWater": "1",
        "Toilet": "1",
        "Longitude": "121.8321156",
        "Latitude": "25.1263144"
    },
    {
        "OID": "139",
        "Name": "新北市政府警察局瑞芳分局水湳洞派出所",
        "Type": "泊點",
        "HotWater": "1",
        "Toilet": "1",
        "Longitude": "121.8619442",
        "Latitude": "25.1216469"
    },
    {
        "OID": "140",
        "Name": "東埔停車場",
        "Type": "泊點",
        "HotWater": "1",
        "Toilet": "1",
        "Longitude": "120.9227398",
        "Latitude": "23.5615372"
    },
    {
        "OID": "141",
        "Name": "鰲峰山觀景平台",
        "Type": "泊點",
        "HotWater": "1",
        "Toilet": "1",
        "Longitude": "120.5842299",
        "Latitude": "24.2698038"
    },
    {
        "OID": "142",
        "Name": "天德堂停車場",
        "Type": "泊點",
        "HotWater": "1",
        "Toilet": "0",
        "Longitude": "120.9797029",
        "Latitude": "24.8668429"
    },
    {
        "OID": "143",
        "Name": "高雄市忠烈祠",
        "Type": "泊點",
        "HotWater": "1",
        "Toilet": "1",
        "Longitude": "120.2739249",
        "Latitude": "22.6263091"
    },
    {
        "OID": "144",
        "Name": "水楠洞旅遊服務中心",
        "Type": "泊點",
        "HotWater": "1",
        "Toilet": "1",
        "Longitude": "121.8616097",
        "Latitude": "25.1218827"
    },
    {
        "OID": "145",
        "Name": "朝日亭",
        "Type": "泊點",
        "HotWater": "1",
        "Toilet": "0",
        "Longitude": "121.859571",
        "Latitude": "25.1120559"
    },
    {
        "OID": "146",
        "Name": "田尾公路花園停車場",
        "Type": "泊點",
        "HotWater": "1",
        "Toilet": "0",
        "Longitude": "120.531047",
        "Latitude": "23.895367"
    },
    {
        "OID": "147",
        "Name": "清水岩營地",
        "Type": "泊點",
        "HotWater": "1",
        "Toilet": "0",
        "Longitude": "120.60891",
        "Latitude": "23.884604"
    },
    {
        "OID": "148",
        "Name": "新都生態公園",
        "Type": "泊點",
        "HotWater": "1",
        "Toilet": "0",
        "Longitude": "120.7296894",
        "Latitude": "24.173512"
    },
    {
        "OID": "149",
        "Name": "文德宮",
        "Type": "泊點",
        "HotWater": "1",
        "Toilet": "0",
        "Longitude": "120.547004",
        "Latitude": "24.042573"
    },
    {
        "OID": "150",
        "Name": "龍洞灣岬步道南停車場",
        "Type": "泊點",
        "HotWater": "0",
        "Toilet": "0",
        "Longitude": "121.9220129",
        "Latitude": "25.1052011"
    },
    {
        "OID": "151",
        "Name": "來吉部落廚房",
        "Type": "泊點",
        "HotWater": "1",
        "Toilet": "0",
        "Longitude": "120.7439129",
        "Latitude": "23.5269571"
    },
    {
        "OID": "152",
        "Name": "金龍山日出觀景台",
        "Type": "泊點",
        "HotWater": "1",
        "Toilet": "1",
        "Longitude": "120.9064422",
        "Latitude": "23.9037705"
    },
    {
        "OID": "153",
        "Name": "桃園巨蛋邊停車場",
        "Type": "泊點",
        "HotWater": "1",
        "Toilet": "0",
        "Longitude": "121.3227269",
        "Latitude": "24.9944089"
    },
    {
        "OID": "154",
        "Name": "水尾漁港",
        "Type": "泊點",
        "HotWater": "1",
        "Toilet": "0",
        "Longitude": "121.6469121",
        "Latitude": "25.2225757"
    },
    {
        "OID": "155",
        "Name": "東興宮",
        "Type": "泊點",
        "HotWater": "1",
        "Toilet": "0",
        "Longitude": "121.9503784",
        "Latitude": "25.0204758"
    },
    {
        "OID": "156",
        "Name": "高美濕地遊客中心和停車場",
        "Type": "泊點",
        "HotWater": "1",
        "Toilet": "1",
        "Longitude": "120.547245",
        "Latitude": "24.3023015"
    },
    {
        "OID": "157",
        "Name": "瑞太遊客中心停車場",
        "Type": "泊點",
        "HotWater": "1",
        "Toilet": "0",
        "Longitude": "120.6878158",
        "Latitude": "23.5441261"
    },
    {
        "OID": "158",
        "Name": "金字橋",
        "Type": "泊點",
        "HotWater": "1",
        "Toilet": "0",
        "Longitude": "121.8234071",
        "Latitude": "25.0609029"
    },
    {
        "OID": "159",
        "Name": "金山寺",
        "Type": "泊點",
        "HotWater": "1",
        "Toilet": "1",
        "Longitude": "121.8386812",
        "Latitude": "25.1111381"
    },
    {
        "OID": "160",
        "Name": "青雲殿",
        "Type": "泊點",
        "HotWater": "1",
        "Toilet": "0",
        "Longitude": "121.8414006",
        "Latitude": "25.1161699"
    },
    {
        "OID": "161",
        "Name": "猴硐媒礦園區停車場",
        "Type": "泊點",
        "HotWater": "1",
        "Toilet": "0",
        "Longitude": "121.8262661",
        "Latitude": "25.08520567"
    },
    {
        "OID": "162",
        "Name": "翠峰雪季車輛管制哨",
        "Type": "泊點",
        "HotWater": "1",
        "Toilet": "0",
        "Longitude": "121.1990609",
        "Latitude": "24.1067703"
    },
    {
        "OID": "163",
        "Name": "明湖水漾旁停車場",
        "Type": "泊點",
        "HotWater": "1",
        "Toilet": "0",
        "Longitude": "120.8867456",
        "Latitude": "24.58533759"
    },
    {
        "OID": "164",
        "Name": "客家大院停車場",
        "Type": "泊點",
        "HotWater": "1",
        "Toilet": "1",
        "Longitude": "120.8044283",
        "Latitude": "24.4712899"
    },
    {
        "OID": "165",
        "Name": "獅潭義民廟",
        "Type": "泊點",
        "HotWater": "1",
        "Toilet": "0",
        "Longitude": "120.921559",
        "Latitude": "24.5424713"
    },
    {
        "OID": "166",
        "Name": "枋寮漁港小型車停車場",
        "Type": "泊點",
        "HotWater": "1",
        "Toilet": "0",
        "Longitude": "120.594068",
        "Latitude": "22.3623212"
    },
    {
        "OID": "167",
        "Name": "月影潭心",
        "Type": "泊點",
        "HotWater": "1",
        "Toilet": "0",
        "Longitude": "120.480285",
        "Latitude": "23.465461"
    },
    {
        "OID": "168",
        "Name": "濟福宮停車場",
        "Type": "泊點",
        "HotWater": "1",
        "Toilet": "0",
        "Longitude": "120.488016",
        "Latitude": "23.475137"
    },
    {
        "OID": "169",
        "Name": "三信觀景亭",
        "Type": "泊點",
        "HotWater": "1",
        "Toilet": "0",
        "Longitude": "120.477041",
        "Latitude": "23.468512"
    },
    {
        "OID": "170",
        "Name": "竹35線6K",
        "Type": "泊點",
        "HotWater": "1",
        "Toilet": "1",
        "Longitude": "121.1386714",
        "Latitude": "24.68564858"
    },
    {
        "OID": "171",
        "Name": "五指山灶君堂",
        "Type": "泊點",
        "HotWater": "1",
        "Toilet": "0",
        "Longitude": "121.0896725",
        "Latitude": "24.6423962"
    },
    {
        "OID": "172",
        "Name": "天送埤-福山寺廣場",
        "Type": "泊點",
        "HotWater": "1",
        "Toilet": "1",
        "Longitude": "121.6228339",
        "Latitude": "24.6610364"
    },
    {
        "OID": "173",
        "Name": "將軍漁港管理站",
        "Type": "泊點",
        "HotWater": "1",
        "Toilet": "0",
        "Longitude": "120.0880955",
        "Latitude": "23.2105715"
    },
    {
        "OID": "174",
        "Name": "布洛灣遊憩區",
        "Type": "泊點",
        "HotWater": "1",
        "Toilet": "1",
        "Longitude": "121.5726348",
        "Latitude": "24.1707048"
    },
    {
        "OID": "175",
        "Name": "綠水遊客中心",
        "Type": "泊點",
        "HotWater": "1",
        "Toilet": "0",
        "Longitude": "121.5079576",
        "Latitude": "24.178582"
    },
    {
        "OID": "176",
        "Name": "北埔冷泉停車場",
        "Type": "泊點",
        "HotWater": "1",
        "Toilet": "1",
        "Longitude": "121.0724295",
        "Latitude": "24.6629944"
    },
    {
        "OID": "177",
        "Name": "青年嶺環狀步道停車場",
        "Type": "泊點",
        "HotWater": "1",
        "Toilet": "0",
        "Longitude": "120.665461",
        "Latitude": "23.538913"
    },
    {
        "OID": "178",
        "Name": "張家堡森林梅園",
        "Type": "泊點",
        "HotWater": "1",
        "Toilet": "0",
        "Longitude": "120.842603",
        "Latitude": "23.667544"
    },
    {
        "OID": "179",
        "Name": "大埔情人公園",
        "Type": "泊點",
        "HotWater": "1",
        "Toilet": "1",
        "Longitude": "120.5894235",
        "Latitude": "23.3019595"
    },
    {
        "OID": "180",
        "Name": "中正露營區",
        "Type": "泊點",
        "HotWater": "1",
        "Toilet": "0",
        "Longitude": "120.7845869",
        "Latitude": "24.1727892"
    },
    {
        "OID": "181",
        "Name": "台糖屏東量販店",
        "Type": "泊點",
        "HotWater": "1",
        "Toilet": "1",
        "Longitude": "120.488917",
        "Latitude": "22.662988"
    },
    {
        "OID": "182",
        "Name": "櫻花陵園營地",
        "Type": "泊點",
        "HotWater": "0",
        "Toilet": "0",
        "Longitude": "121.7034022",
        "Latitude": "24.8235905"
    },
    {
        "OID": "183",
        "Name": "豐賓山莊",
        "Type": "泊點",
        "HotWater": "1",
        "Toilet": "0",
        "Longitude": "120.747681",
        "Latitude": "23.574459"
    },
    {
        "OID": "184",
        "Name": "佳洛水叉路口停車場",
        "Type": "泊點",
        "HotWater": "1",
        "Toilet": "1",
        "Longitude": "120.8417612",
        "Latitude": "21.9895467"
    },
    {
        "OID": "185",
        "Name": "大潭埤旺萊公園",
        "Type": "泊點",
        "HotWater": "1",
        "Toilet": "0",
        "Longitude": "120.340811",
        "Latitude": "22.957269"
    },
    {
        "OID": "186",
        "Name": "笆崎休息區停車場",
        "Type": "泊點",
        "HotWater": "1",
        "Toilet": "1",
        "Longitude": "121.5582973",
        "Latitude": "23.731666"
    },
    {
        "OID": "187",
        "Name": "梅山遊客中心",
        "Type": "泊點",
        "HotWater": "1",
        "Toilet": "0",
        "Longitude": "120.825997",
        "Latitude": "23.2633569"
    },
    {
        "OID": "188",
        "Name": "外澳火車站",
        "Type": "泊點",
        "HotWater": "0",
        "Toilet": "0",
        "Longitude": "121.845757",
        "Latitude": "24.883703"
    },
    {
        "OID": "189",
        "Name": "翠峰湖停車場",
        "Type": "泊點",
        "HotWater": "1",
        "Toilet": "0",
        "Longitude": "121.6078028",
        "Latitude": "24.5107138"
    },
    {
        "OID": "190",
        "Name": "明池山莊停車場",
        "Type": "泊點",
        "HotWater": "1",
        "Toilet": "1",
        "Longitude": "121.4699336",
        "Latitude": "24.6533104"
    },
    {
        "OID": "191",
        "Name": "三坑自然生態公園",
        "Type": "泊點",
        "HotWater": "1",
        "Toilet": "0",
        "Longitude": "121.2573802",
        "Latitude": "24.8389549"
    },
    {
        "OID": "192",
        "Name": "霧社加油站下方停車場",
        "Type": "泊點",
        "HotWater": "1",
        "Toilet": "0",
        "Longitude": "121.1313137",
        "Latitude": "24.0185129"
    },
    {
        "OID": "193",
        "Name": "鹽粿山土地公廟(大凍山登山口) 注意.大車上不去",
        "Type": "泊點",
        "HotWater": "1",
        "Toilet": "1",
        "Longitude": "120.5097012",
        "Latitude": "23.3185489"
    },
    {
        "OID": "194",
        "Name": "二行社區活動中心",
        "Type": "泊點",
        "HotWater": "1",
        "Toilet": "0",
        "Longitude": "120.2238715",
        "Latitude": "22.9159737"
    },
    {
        "OID": "195",
        "Name": "保安火車站",
        "Type": "泊點",
        "HotWater": "1",
        "Toilet": "1",
        "Longitude": "120.231635",
        "Latitude": "22.932952"
    },
    {
        "OID": "196",
        "Name": "台南市忠烈祠停車場",
        "Type": "泊點",
        "HotWater": "1",
        "Toilet": "0",
        "Longitude": "120.2107697",
        "Latitude": "22.9809265"
    },
    {
        "OID": "197",
        "Name": "彰化市景觀公園",
        "Type": "泊點",
        "HotWater": "1",
        "Toilet": "0",
        "Longitude": "120.5541225",
        "Latitude": "24.1013544"
    },
    {
        "OID": "198",
        "Name": "合流露營地",
        "Type": "泊點",
        "HotWater": "1",
        "Toilet": "1",
        "Longitude": "121.5137039",
        "Latitude": "24.177137"
    },
    {
        "OID": "199",
        "Name": "迎曦湖",
        "Type": "泊點",
        "HotWater": "1",
        "Toilet": "0",
        "Longitude": "120.2860048",
        "Latitude": "23.0892487"
    },
    {
        "OID": "200",
        "Name": "大溪中正公園",
        "Type": "泊點",
        "HotWater": "1",
        "Toilet": "0",
        "Longitude": "121.2848253",
        "Latitude": "24.8838835"
    },
    {
        "OID": "201",
        "Name": "大溪鎮多目標體育館",
        "Type": "泊點",
        "HotWater": "1",
        "Toilet": "0",
        "Longitude": "121.287068",
        "Latitude": "24.883466"
    },
    {
        "OID": "202",
        "Name": "二城國小",
        "Type": "泊點",
        "HotWater": "1",
        "Toilet": "0",
        "Longitude": "121.805162",
        "Latitude": "24.843792"
    },
    {
        "OID": "203",
        "Name": "三貂角碉堡",
        "Type": "泊點",
        "HotWater": "1",
        "Toilet": "1",
        "Longitude": "121.9978956",
        "Latitude": "25.0172714"
    },
    {
        "OID": "204",
        "Name": "滬尾?臺",
        "Type": "泊點",
        "HotWater": "1",
        "Toilet": "0",
        "Longitude": "121.429389",
        "Latitude": "25.179218"
    },
    {
        "OID": "205",
        "Name": "永和山水庫",
        "Type": "泊點",
        "HotWater": "1",
        "Toilet": "1",
        "Longitude": "120.9232053",
        "Latitude": "24.6603617"
    },
    {
        "OID": "206",
        "Name": "竹南運動公園",
        "Type": "泊點",
        "HotWater": "1",
        "Toilet": "1",
        "Longitude": "120.8881841",
        "Latitude": "24.6895847"
    },
    {
        "OID": "207",
        "Name": "新北市忠烈祠",
        "Type": "泊點",
        "HotWater": "1",
        "Toilet": "0",
        "Longitude": "121.4282776",
        "Latitude": "25.1789569"
    },
    {
        "OID": "208",
        "Name": "一滴水紀念館",
        "Type": "泊點",
        "HotWater": "1",
        "Toilet": "0",
        "Longitude": "121.430772",
        "Latitude": "25.178206"
    },
    {
        "OID": "209",
        "Name": "文峰遊客中心",
        "Type": "泊點",
        "HotWater": "1",
        "Toilet": "0",
        "Longitude": "120.593903",
        "Latitude": "23.517185"
    },
    {
        "OID": "210",
        "Name": "太興岩步道停車場",
        "Type": "泊點",
        "HotWater": "1",
        "Toilet": "1",
        "Longitude": "120.635289",
        "Latitude": "23.536365"
    },
    {
        "OID": "211",
        "Name": "圓潭自然生態園區停車場",
        "Type": "泊點",
        "HotWater": "1",
        "Toilet": "1",
        "Longitude": "120.6595534",
        "Latitude": "23.5294985"
    },
    {
        "OID": "212",
        "Name": "源興宮",
        "Type": "泊點",
        "HotWater": "1",
        "Toilet": "0",
        "Longitude": "120.67352",
        "Latitude": "23.5398139"
    },
    {
        "OID": "213",
        "Name": "貓狸山公園停車場",
        "Type": "泊點",
        "HotWater": "1",
        "Toilet": "0",
        "Longitude": "120.808884",
        "Latitude": "24.5548626"
    },
    {
        "OID": "214",
        "Name": "紫雲寺第二停車場",
        "Type": "泊點",
        "HotWater": "1",
        "Toilet": "1",
        "Longitude": "120.594526",
        "Latitude": "23.461899"
    },
    {
        "OID": "215",
        "Name": "半天岩大停車場",
        "Type": "泊點",
        "HotWater": "1",
        "Toilet": "0",
        "Longitude": "120.5960494",
        "Latitude": "23.4614945"
    },
    {
        "OID": "216",
        "Name": "新豐紅樹林生態保護區",
        "Type": "泊點",
        "HotWater": "0",
        "Toilet": "0",
        "Longitude": "120.9719875",
        "Latitude": "24.9096548"
    },
    {
        "OID": "217",
        "Name": "宜蘭縣蘇澳鎮朝陽社區發展協會",
        "Type": "泊點",
        "HotWater": "1",
        "Toilet": "0",
        "Longitude": "121.819634",
        "Latitude": "24.46093"
    },
    {
        "OID": "218",
        "Name": "貢寮區環保公園",
        "Type": "泊點",
        "HotWater": "0",
        "Toilet": "0",
        "Longitude": "121.9053677",
        "Latitude": "25.020984"
    },
    {
        "OID": "219",
        "Name": "錦屏美人湯館",
        "Type": "泊點",
        "HotWater": "1",
        "Toilet": "0",
        "Longitude": "121.208192",
        "Latitude": "24.670675"
    },
    {
        "OID": "220",
        "Name": "虎門巷",
        "Type": "泊點",
        "HotWater": "1",
        "Toilet": "0",
        "Longitude": "121.1635072",
        "Latitude": "24.0285244"
    },
    {
        "OID": "221",
        "Name": "福壽山農場停車場",
        "Type": "泊點",
        "HotWater": "1",
        "Toilet": "0",
        "Longitude": "121.2445414",
        "Latitude": "24.2445911"
    },
    {
        "OID": "222",
        "Name": "永安漁港",
        "Type": "泊點",
        "HotWater": "1",
        "Toilet": "0",
        "Longitude": "121.0135621",
        "Latitude": "24.9882923"
    },
    {
        "OID": "223",
        "Name": "風情海岸",
        "Type": "泊點",
        "HotWater": "1",
        "Toilet": "1",
        "Longitude": "120.9144545",
        "Latitude": "24.7786497"
    },
    {
        "OID": "224",
        "Name": "苑港濱海公園",
        "Type": "泊點",
        "HotWater": "1",
        "Toilet": "1",
        "Longitude": "120.6472682",
        "Latitude": "24.4591001"
    },
    {
        "OID": "225",
        "Name": "池和宮 池府王爺廟",
        "Type": "泊點",
        "HotWater": "1",
        "Toilet": "1",
        "Longitude": "120.9762331",
        "Latitude": "24.9100699"
    },
    {
        "OID": "226",
        "Name": "虎頭山環保公園",
        "Type": "泊點",
        "HotWater": "1",
        "Toilet": "1",
        "Longitude": "121.3283975",
        "Latitude": "25.0120539"
    },
    {
        "OID": "227",
        "Name": "埔里中油台一站",
        "Type": "泊點",
        "HotWater": "1",
        "Toilet": "1",
        "Longitude": "121.0126421",
        "Latitude": "23.9815695"
    },
    {
        "OID": "228",
        "Name": "碧湖山觀光茶園",
        "Type": "泊點",
        "HotWater": "1",
        "Toilet": "0",
        "Longitude": "120.6219515",
        "Latitude": "23.5696717"
    },
    {
        "OID": "229",
        "Name": "特富野古道",
        "Type": "泊點",
        "HotWater": "1",
        "Toilet": "0",
        "Longitude": "120.8302324",
        "Latitude": "23.4840775"
    },
    {
        "OID": "230",
        "Name": "小風口大停車場",
        "Type": "泊點",
        "HotWater": "1",
        "Toilet": "0",
        "Longitude": "121.2880325",
        "Latitude": "24.1623727"
    },
    {
        "OID": "231",
        "Name": "天長地久",
        "Type": "泊點",
        "HotWater": "1",
        "Toilet": "1",
        "Longitude": "120.6072691",
        "Latitude": "23.4395453"
    },
    {
        "OID": "232",
        "Name": "貓狸山公園停車場",
        "Type": "泊點",
        "HotWater": "1",
        "Toilet": "1",
        "Longitude": "120.808884",
        "Latitude": "24.5548626"
    },
    {
        "OID": "233",
        "Name": "貓貍山公園",
        "Type": "泊點",
        "HotWater": "1",
        "Toilet": "0",
        "Longitude": "120.8121523",
        "Latitude": "24.556645"
    },
    {
        "OID": "234",
        "Name": "港南濱海風景區",
        "Type": "泊點",
        "HotWater": "1",
        "Toilet": "0",
        "Longitude": "120.910339",
        "Latitude": "24.822819"
    },
    {
        "OID": "235",
        "Name": "新竹南寮舊漁港",
        "Type": "泊點",
        "HotWater": "1",
        "Toilet": "0",
        "Longitude": "120.9290028",
        "Latitude": "24.8498061"
    },
    {
        "OID": "236",
        "Name": "石門古戰場",
        "Type": "泊點",
        "HotWater": "1",
        "Toilet": "0",
        "Longitude": "120.7614686",
        "Latitude": "22.1124952"
    },
    {
        "OID": "237",
        "Name": "奧萬大停車場",
        "Type": "泊點",
        "HotWater": "0",
        "Toilet": "0",
        "Longitude": "121.1758974",
        "Latitude": "23.9536214"
    },
    {
        "OID": "238",
        "Name": "碧湖山驛站",
        "Type": "泊點",
        "HotWater": "1",
        "Toilet": "1",
        "Longitude": "120.621923",
        "Latitude": "23.569599"
    },
    {
        "OID": "239",
        "Name": "觀音寺",
        "Type": "泊點",
        "HotWater": "1",
        "Toilet": "0",
        "Longitude": "121.098512",
        "Latitude": "24.665312"
    },
    {
        "OID": "240",
        "Name": "汶水老街停車場",
        "Type": "泊點",
        "HotWater": "1",
        "Toilet": "0",
        "Longitude": "120.8764538",
        "Latitude": "24.4563285"
    },
    {
        "OID": "241",
        "Name": "旭海溫泉",
        "Type": "泊點",
        "HotWater": "1",
        "Toilet": "0",
        "Longitude": "120.8777833",
        "Latitude": "22.1900525"
    },
    {
        "OID": "242",
        "Name": "鳩之澤停車場",
        "Type": "泊點",
        "HotWater": "1",
        "Toilet": "0",
        "Longitude": "121.5087864",
        "Latitude": "24.5457179"
    },
    {
        "OID": "243",
        "Name": "縣立憲明國小",
        "Type": "泊點",
        "HotWater": "0",
        "Toilet": "0",
        "Longitude": "121.6189375",
        "Latitude": "24.6615049"
    },
    {
        "OID": "244",
        "Name": "有木國小",
        "Type": "泊點",
        "HotWater": "0",
        "Toilet": "0",
        "Longitude": "121.436958",
        "Latitude": "24.853769"
    },
    {
        "OID": "245",
        "Name": "濂洞國小",
        "Type": "泊點",
        "HotWater": "0",
        "Toilet": "0",
        "Longitude": "121.860053",
        "Latitude": "25.122285"
    },
    {
        "OID": "246",
        "Name": "福連國小",
        "Type": "泊點",
        "HotWater": "0",
        "Toilet": "0",
        "Longitude": "121.988721",
        "Latitude": "25.0167967"
    },
    {
        "OID": "247",
        "Name": "武塔國小露營區",
        "Type": "泊點",
        "HotWater": "0",
        "Toilet": "0",
        "Longitude": "121.7782903",
        "Latitude": "24.4446283"
    },
    {
        "OID": "248",
        "Name": "濂洞灣公路停車場",
        "Type": "泊點",
        "HotWater": "0",
        "Toilet": "0",
        "Longitude": "121.8620494",
        "Latitude": "25.1248681"
    },
    {
        "OID": "249",
        "Name": "金崙火車站前",
        "Type": "泊點",
        "HotWater": "0",
        "Toilet": "0",
        "Longitude": "120.9667414",
        "Latitude": "22.5311244"
    },
    {
        "OID": "250",
        "Name": "左鎮旅遊服務中心",
        "Type": "泊點",
        "HotWater": "0",
        "Toilet": "0",
        "Longitude": "120.41478",
        "Latitude": "23.007127"
    },
    {
        "OID": "251",
        "Name": "觸口遊客中心",
        "Type": "泊點",
        "HotWater": "1",
        "Toilet": "0",
        "Longitude": "120.5852562",
        "Latitude": "23.4462682"
    },
    {
        "OID": "252",
        "Name": "杉林溪停車場",
        "Type": "泊點",
        "HotWater": "0",
        "Toilet": "0",
        "Longitude": "120.7919821",
        "Latitude": "23.6388188"
    },
    {
        "OID": "253",
        "Name": "黃金瀑布停車場 無水廁 不收費",
        "Type": "泊點",
        "HotWater": "1",
        "Toilet": "0",
        "Longitude": "121.8615666",
        "Latitude": "25.1179104"
    },
    {
        "OID": "254",
        "Name": "林默娘公園公有停車場",
        "Type": "泊點",
        "HotWater": "1",
        "Toilet": "1",
        "Longitude": "120.1569152",
        "Latitude": "22.9923919"
    },
    {
        "OID": "255",
        "Name": "林默娘公園東側停車場",
        "Type": "泊點",
        "HotWater": "1",
        "Toilet": "1",
        "Longitude": "120.1574171",
        "Latitude": "22.9926197"
    },
    {
        "OID": "256",
        "Name": "二鯤鯓砲臺(億載金城)",
        "Type": "泊點",
        "HotWater": "1",
        "Toilet": "0",
        "Longitude": "120.159255",
        "Latitude": "22.987883"
    },
    {
        "OID": "257",
        "Name": "停車場",
        "Type": "泊點",
        "HotWater": "1",
        "Toilet": "1",
        "Longitude": "120.164474",
        "Latitude": "22.9973652"
    },
    {
        "OID": "258",
        "Name": "二延平步道",
        "Type": "泊點",
        "HotWater": "1",
        "Toilet": "0",
        "Longitude": "120.650847",
        "Latitude": "23.4175793"
    },
    {
        "OID": "259",
        "Name": "板頭厝車站",
        "Type": "泊點",
        "HotWater": "0",
        "Toilet": "0",
        "Longitude": "120.322444",
        "Latitude": "23.56514"
    },
    {
        "OID": "260",
        "Name": "白馬亭",
        "Type": "泊點",
        "HotWater": "1",
        "Toilet": "0",
        "Longitude": "120.6020703",
        "Latitude": "23.2918986"
    },
    {
        "OID": "261",
        "Name": "壽山動物園停車場",
        "Type": "泊點",
        "HotWater": "0",
        "Toilet": "0",
        "Longitude": "120.2803064",
        "Latitude": "22.6348202"
    },
    {
        "OID": "262",
        "Name": "台東成功漁港",
        "Type": "泊點",
        "HotWater": "0",
        "Toilet": "0",
        "Longitude": "121.3810975",
        "Latitude": "23.0980371"
    },
    {
        "OID": "263",
        "Name": "金光山厚德紫竹寺",
        "Type": "泊點",
        "HotWater": "0",
        "Toilet": "0",
        "Longitude": "120.4889874",
        "Latitude": "23.0262471"
    },
    {
        "OID": "264",
        "Name": "五峰山龍湖寺",
        "Type": "泊點",
        "HotWater": "0",
        "Toilet": "0",
        "Longitude": "120.4968313",
        "Latitude": "23.026475"
    },
    {
        "OID": "265",
        "Name": "水往上流遊憩區",
        "Type": "泊點",
        "HotWater": "1",
        "Toilet": "0",
        "Longitude": "121.2181117",
        "Latitude": "22.8684912"
    },
    {
        "OID": "266",
        "Name": "菜寮化石館",
        "Type": "泊點",
        "HotWater": "1",
        "Toilet": "1",
        "Longitude": "120.3890812",
        "Latitude": "23.0645727"
    },
    {
        "OID": "267",
        "Name": "噶瑪噶居寺",
        "Type": "泊點",
        "HotWater": "1",
        "Toilet": "0",
        "Longitude": "120.398826",
        "Latitude": "23.0532428"
    },
    {
        "OID": "268",
        "Name": "九龍大榕樹",
        "Type": "泊點",
        "HotWater": "1",
        "Toilet": "0",
        "Longitude": "120.4489129",
        "Latitude": "23.8286129"
    },
    {
        "OID": "269",
        "Name": "天送埤火車站",
        "Type": "泊點",
        "HotWater": "1",
        "Toilet": "1",
        "Longitude": "121.6197571",
        "Latitude": "24.6625355"
    },
    {
        "OID": "270",
        "Name": "善化啤酒廠",
        "Type": "泊點",
        "HotWater": "1",
        "Toilet": "0",
        "Longitude": "120.3184879",
        "Latitude": "23.1296969"
    },
    {
        "OID": "271",
        "Name": "三仙臺遊客中心",
        "Type": "泊點",
        "HotWater": "1",
        "Toilet": "1",
        "Longitude": "121.4078415",
        "Latitude": "23.1230214"
    },
    {
        "OID": "272",
        "Name": "成功鎮海濱公園",
        "Type": "泊點",
        "HotWater": "1",
        "Toilet": "1",
        "Longitude": "121.3841777",
        "Latitude": "23.1000808"
    },
    {
        "OID": "273",
        "Name": "美堤河濱公園",
        "Type": "泊點",
        "HotWater": "1",
        "Toilet": "0",
        "Longitude": "121.5607608",
        "Latitude": "25.0752299"
    },
    {
        "OID": "274",
        "Name": "碧山路停車場",
        "Type": "泊點",
        "HotWater": "1",
        "Toilet": "0",
        "Longitude": "121.5880062",
        "Latitude": "25.0989063"
    },
    {
        "OID": "275",
        "Name": "福順宮",
        "Type": "泊點",
        "HotWater": "0",
        "Toilet": "0",
        "Longitude": "120.9440771",
        "Latitude": "23.882096"
    },
    {
        "OID": "276",
        "Name": "蝴蝶園",
        "Type": "泊點",
        "HotWater": "1",
        "Toilet": "0",
        "Longitude": "120.9362165",
        "Latitude": "23.8503949"
    },
    {
        "OID": "277",
        "Name": "宜蘭縣政府警察局太平山檢查哨",
        "Type": "泊點",
        "HotWater": "0",
        "Toilet": "0",
        "Longitude": "121.5353447",
        "Latitude": "24.4972255"
    },
    {
        "OID": "278",
        "Name": "武陵遊客中心停車場",
        "Type": "泊點",
        "HotWater": "1",
        "Toilet": "1",
        "Longitude": "121.3101223",
        "Latitude": "24.3532399"
    },
    {
        "OID": "279",
        "Name": "文康?下停車場",
        "Type": "泊點",
        "HotWater": "1",
        "Toilet": "1",
        "Longitude": "121.3119176",
        "Latitude": "24.3552191"
    },
    {
        "OID": "280",
        "Name": "岡林教會",
        "Type": "泊點",
        "HotWater": "1",
        "Toilet": "1",
        "Longitude": "120.4168658",
        "Latitude": "23.0107572"
    },
    {
        "OID": "281",
        "Name": "富寮里隘寮社區聖母宮",
        "Type": "泊點",
        "HotWater": "0",
        "Toilet": "0",
        "Longitude": "120.7122085",
        "Latitude": "23.9777656"
    },
    {
        "OID": "282",
        "Name": "守望相助隊廣場",
        "Type": "泊點",
        "HotWater": "0",
        "Toilet": "0",
        "Longitude": "120.8847946",
        "Latitude": "23.6014255"
    },
    {
        "OID": "283",
        "Name": "環保公園",
        "Type": "泊點",
        "HotWater": "0",
        "Toilet": "0",
        "Longitude": "120.6940037",
        "Latitude": "23.9783321"
    },
    {
        "OID": "284",
        "Name": "豐柏廣場",
        "Type": "泊點",
        "HotWater": "0",
        "Toilet": "0",
        "Longitude": "120.6190832",
        "Latitude": "23.8226807"
    },
    {
        "OID": "285",
        "Name": "旗津風車公園",
        "Type": "泊點",
        "HotWater": "1",
        "Toilet": "1",
        "Longitude": "120.2843378",
        "Latitude": "22.5883126"
    },
    {
        "OID": "286",
        "Name": "大崗山自然生態園區",
        "Type": "泊點",
        "HotWater": "1",
        "Toilet": "0",
        "Longitude": "120.347414",
        "Latitude": "22.87146"
    },
    {
        "OID": "287",
        "Name": "國立中山大學停車場",
        "Type": "泊點",
        "HotWater": "1",
        "Toilet": "0",
        "Longitude": "120.2629378",
        "Latitude": "22.623626"
    },
    {
        "OID": "288",
        "Name": "茄萣濕地公園",
        "Type": "泊點",
        "HotWater": "0",
        "Toilet": "0",
        "Longitude": "120.2007002",
        "Latitude": "22.8835578"
    },
    {
        "OID": "289",
        "Name": "十八羅漢山服務區",
        "Type": "泊點",
        "HotWater": "1",
        "Toilet": "1",
        "Longitude": "120.641705",
        "Latitude": "22.9506628"
    },
    {
        "OID": "290",
        "Name": "中興塔",
        "Type": "泊點",
        "HotWater": "1",
        "Toilet": "0",
        "Longitude": "120.343156",
        "Latitude": "22.667291"
    },
    {
        "OID": "291",
        "Name": "旗津踩風大道",
        "Type": "泊點",
        "HotWater": "1",
        "Toilet": "0",
        "Longitude": "120.272567",
        "Latitude": "22.6042129"
    },
    {
        "OID": "292",
        "Name": "旗津海岸公園",
        "Type": "泊點",
        "HotWater": "1",
        "Toilet": "0",
        "Longitude": "120.2686858",
        "Latitude": "22.6089102"
    },
    {
        "OID": "293",
        "Name": "月世界地景公園",
        "Type": "泊點",
        "HotWater": "1",
        "Toilet": "0",
        "Longitude": "120.3889836",
        "Latitude": "22.8860021"
    },
    {
        "OID": "294",
        "Name": "磯崎海水浴場",
        "Type": "泊點",
        "HotWater": "1",
        "Toilet": "0",
        "Longitude": "121.5495254",
        "Latitude": "23.7009222"
    },
    {
        "OID": "295",
        "Name": "磯崎遊憩區停車場",
        "Type": "泊點",
        "HotWater": "1",
        "Toilet": "0",
        "Longitude": "121.550778",
        "Latitude": "23.696721"
    },
    {
        "OID": "296",
        "Name": "羅山瀑布停車場",
        "Type": "泊點",
        "HotWater": "1",
        "Toilet": "0",
        "Longitude": "121.2919118",
        "Latitude": "23.1830806"
    },
    {
        "OID": "297",
        "Name": "保安寺",
        "Type": "泊點",
        "HotWater": "1",
        "Toilet": "0",
        "Longitude": "121.4348779",
        "Latitude": "23.6725259"
    },
    {
        "OID": "298",
        "Name": "北濱公園",
        "Type": "泊點",
        "HotWater": "1",
        "Toilet": "0",
        "Longitude": "121.6167775",
        "Latitude": "23.9759745"
    },
    {
        "OID": "299",
        "Name": "佐倉步道",
        "Type": "泊點",
        "HotWater": "1",
        "Toilet": "1",
        "Longitude": "121.5765521",
        "Latitude": "24.0185644"
    },
    {
        "OID": "300",
        "Name": "潭南停車場",
        "Type": "泊點",
        "HotWater": "1",
        "Toilet": "0",
        "Longitude": "121.5059936",
        "Latitude": "23.9240804"
    },
    {
        "OID": "301",
        "Name": "七星潭",
        "Type": "泊點",
        "HotWater": "1",
        "Toilet": "0",
        "Longitude": "121.6267365",
        "Latitude": "24.0315314"
    },
    {
        "OID": "302",
        "Name": "合流停車場",
        "Type": "泊點",
        "HotWater": "1",
        "Toilet": "0",
        "Longitude": "121.5127748",
        "Latitude": "24.1779336"
    },
    {
        "OID": "303",
        "Name": "金馬隧道口",
        "Type": "泊點",
        "HotWater": "1",
        "Toilet": "0",
        "Longitude": "121.3723719",
        "Latitude": "24.1770845"
    },
    {
        "OID": "304",
        "Name": "花蓮縣政府警察局玉里分局春日派出所",
        "Type": "泊點",
        "HotWater": "1",
        "Toilet": "0",
        "Longitude": "121.3963131",
        "Latitude": "23.4550139"
    },
    {
        "OID": "305",
        "Name": "八通關古道登山口",
        "Type": "泊點",
        "HotWater": "0",
        "Toilet": "0",
        "Longitude": "121.2348658",
        "Latitude": "23.3289391"
    },
    {
        "OID": "306",
        "Name": "外木山濱海廊帶",
        "Type": "泊點",
        "HotWater": "1",
        "Toilet": "0",
        "Longitude": "121.7225879",
        "Latitude": "25.1641222"
    },
    {
        "OID": "307",
        "Name": "65高地停車場",
        "Type": "泊點",
        "HotWater": "1",
        "Toilet": "0",
        "Longitude": "121.7985538",
        "Latitude": "25.1450594"
    },
    {
        "OID": "308",
        "Name": "暖東峽谷停車場",
        "Type": "泊點",
        "HotWater": "1",
        "Toilet": "0",
        "Longitude": "121.7547946",
        "Latitude": "25.0768149"
    },
    {
        "OID": "309",
        "Name": "石盤谷步道停車場",
        "Type": "泊點",
        "HotWater": "1",
        "Toilet": "0",
        "Longitude": "120.746023",
        "Latitude": "23.598392"
    },
    {
        "OID": "310",
        "Name": "鰲鼓溼地森林園區",
        "Type": "泊點",
        "HotWater": "1",
        "Toilet": "0",
        "Longitude": "120.156939",
        "Latitude": "23.507092"
    },
    {
        "OID": "311",
        "Name": "龍隱寺",
        "Type": "泊點",
        "HotWater": "1",
        "Toilet": "0",
        "Longitude": "120.6072938",
        "Latitude": "23.4389508"
    },
    {
        "OID": "312",
        "Name": "泰興巖",
        "Type": "泊點",
        "HotWater": "1",
        "Toilet": "0",
        "Longitude": "120.634577",
        "Latitude": "23.541436"
    },
    {
        "OID": "313",
        "Name": "雲潭瀑布休息站",
        "Type": "泊點",
        "HotWater": "1",
        "Toilet": "1",
        "Longitude": "120.6555221",
        "Latitude": "23.5317547"
    },
    {
        "OID": "314",
        "Name": "水社寮車站",
        "Type": "泊點",
        "HotWater": "1",
        "Toilet": "1",
        "Longitude": "120.6601757",
        "Latitude": "23.5042652"
    },
    {
        "OID": "315",
        "Name": "頂石棹旅遊服務站",
        "Type": "泊點",
        "HotWater": "1",
        "Toilet": "0",
        "Longitude": "120.6986572",
        "Latitude": "23.4792614"
    },
    {
        "OID": "316",
        "Name": "中和國小",
        "Type": "泊點",
        "HotWater": "1",
        "Toilet": "0",
        "Longitude": "120.6982765",
        "Latitude": "23.5016383"
    },
    {
        "OID": "317",
        "Name": "第三停車場",
        "Type": "泊點",
        "HotWater": "1",
        "Toilet": "0",
        "Longitude": "120.6936063",
        "Latitude": "23.5051758"
    },
    {
        "OID": "318",
        "Name": "奮起湖X停車場",
        "Type": "泊點",
        "HotWater": "1",
        "Toilet": "0",
        "Longitude": "120.6951963",
        "Latitude": "23.5061127"
    },
    {
        "OID": "319",
        "Name": "鹿麻產火車站(舊址)",
        "Type": "泊點",
        "HotWater": "1",
        "Toilet": "0",
        "Longitude": "120.5315544",
        "Latitude": "23.5042844"
    },
    {
        "OID": "320",
        "Name": "公園停車場",
        "Type": "泊點",
        "HotWater": "1",
        "Toilet": "0",
        "Longitude": "120.5463593",
        "Latitude": "23.5239433"
    },
    {
        "OID": "321",
        "Name": "後龍鎮半天寮休閒文化園區(好望角)",
        "Type": "泊點",
        "HotWater": "1",
        "Toilet": "0",
        "Longitude": "120.7312316",
        "Latitude": "24.6019617"
    },
    {
        "OID": "322",
        "Name": "陸家派出所",
        "Type": "泊點",
        "HotWater": "1",
        "Toilet": "0",
        "Longitude": "121.027454",
        "Latitude": "24.538653"
    },
    {
        "OID": "323",
        "Name": "護魚步道入口停車場",
        "Type": "泊點",
        "HotWater": "1",
        "Toilet": "0",
        "Longitude": "120.972703",
        "Latitude": "24.5510173"
    },
    {
        "OID": "324",
        "Name": "協靈宮",
        "Type": "泊點",
        "HotWater": "1",
        "Toilet": "0",
        "Longitude": "120.9505154",
        "Latitude": "24.5416405"
    },
    {
        "OID": "325",
        "Name": "永春宮",
        "Type": "泊點",
        "HotWater": "1",
        "Toilet": "0",
        "Longitude": "120.9115912",
        "Latitude": "24.589519"
    },
    {
        "OID": "326",
        "Name": "觀音瀑布",
        "Type": "泊點",
        "HotWater": "1",
        "Toilet": "0",
        "Longitude": "121.0331606",
        "Latitude": "23.9942791"
    },
    {
        "OID": "327",
        "Name": "桃米生態村",
        "Type": "泊點",
        "HotWater": "1",
        "Toilet": "0",
        "Longitude": "120.9331244",
        "Latitude": "23.9443776"
    },
    {
        "OID": "328",
        "Name": "九份二山堰塞湖停車場",
        "Type": "泊點",
        "HotWater": "1",
        "Toilet": "0",
        "Longitude": "120.8513073",
        "Latitude": "23.948631"
    },
    {
        "OID": "329",
        "Name": "集集攔河堰",
        "Type": "泊點",
        "HotWater": "1",
        "Toilet": "0",
        "Longitude": "120.7636821",
        "Latitude": "23.8162272"
    },
    {
        "OID": "330",
        "Name": "龍泉休閒公園",
        "Type": "泊點",
        "HotWater": "1",
        "Toilet": "0",
        "Longitude": "120.7480145",
        "Latitude": "23.8358443"
    },
    {
        "OID": "331",
        "Name": "快活林",
        "Type": "泊點",
        "HotWater": "1",
        "Toilet": "0",
        "Longitude": "120.7765893",
        "Latitude": "23.6761689"
    },
    {
        "OID": "332",
        "Name": "互助國小",
        "Type": "泊點",
        "HotWater": "1",
        "Toilet": "0",
        "Longitude": "120.969669",
        "Latitude": "24.063237"
    },
    {
        "OID": "333",
        "Name": "鳶峰停車場",
        "Type": "泊點",
        "HotWater": "1",
        "Toilet": "0",
        "Longitude": "121.2372229",
        "Latitude": "24.1179266"
    },
    {
        "OID": "334",
        "Name": "鳳天宮",
        "Type": "泊點",
        "HotWater": "1",
        "Toilet": "0",
        "Longitude": "120.6353475",
        "Latitude": "23.9314848"
    },
    {
        "OID": "335",
        "Name": "郡坑國小",
        "Type": "泊點",
        "HotWater": "1",
        "Toilet": "0",
        "Longitude": "120.855509",
        "Latitude": "23.737102"
    },
    {
        "OID": "336",
        "Name": "上東埔停車場",
        "Type": "泊點",
        "HotWater": "1",
        "Toilet": "0",
        "Longitude": "120.8858734",
        "Latitude": "23.4826513"
    },
    {
        "OID": "337",
        "Name": "石山服務站",
        "Type": "泊點",
        "HotWater": "1",
        "Toilet": "0",
        "Longitude": "120.8681934",
        "Latitude": "23.4824073"
    },
    {
        "OID": "338",
        "Name": "慈恩塔步道停車場",
        "Type": "泊點",
        "HotWater": "1",
        "Toilet": "0",
        "Longitude": "120.919584",
        "Latitude": "23.8436507"
    },
    {
        "OID": "339",
        "Name": "日月潭青年活動中心停車場",
        "Type": "泊點",
        "HotWater": "1",
        "Toilet": "0",
        "Longitude": "120.9372239",
        "Latitude": "23.8516632"
    },
    {
        "OID": "340",
        "Name": "月牙灣",
        "Type": "泊點",
        "HotWater": "1",
        "Toilet": "0",
        "Longitude": "120.9045759",
        "Latitude": "23.8429783"
    },
    {
        "OID": "341",
        "Name": "清水國小",
        "Type": "泊點",
        "HotWater": "1",
        "Toilet": "0",
        "Longitude": "120.7907525",
        "Latitude": "23.9450368"
    },
    {
        "OID": "342",
        "Name": "聖義廟管理委員會",
        "Type": "泊點",
        "HotWater": "1",
        "Toilet": "0",
        "Longitude": "120.670175",
        "Latitude": "23.754672"
    },
    {
        "OID": "343",
        "Name": "海口港遊客中心",
        "Type": "泊點",
        "HotWater": "1",
        "Toilet": "0",
        "Longitude": "120.7153732",
        "Latitude": "22.0900241"
    },
    {
        "OID": "344",
        "Name": "下水堀休息區停車場",
        "Type": "泊點",
        "HotWater": "0",
        "Toilet": "0",
        "Longitude": "120.6874337",
        "Latitude": "22.0251549"
    },
    {
        "OID": "345",
        "Name": "海生館",
        "Type": "泊點",
        "HotWater": "1",
        "Toilet": "0",
        "Longitude": "120.6990141",
        "Latitude": "22.0453807"
    },
    {
        "OID": "346",
        "Name": "賽車場 有收費",
        "Type": "泊點",
        "HotWater": "1",
        "Toilet": "0",
        "Longitude": "120.4804194",
        "Latitude": "22.451857"
    },
    {
        "OID": "347",
        "Name": "高山巖福德宮",
        "Type": "泊點",
        "HotWater": "1",
        "Toilet": "0",
        "Longitude": "120.7199675",
        "Latitude": "21.962942"
    },
    {
        "OID": "348",
        "Name": "古山宮",
        "Type": "泊點",
        "HotWater": "1",
        "Toilet": "0",
        "Longitude": "120.7260405",
        "Latitude": "21.9239154"
    },
    {
        "OID": "349",
        "Name": "後壁湖遊艇碼頭大型車停車場",
        "Type": "泊點",
        "HotWater": "1",
        "Toilet": "0",
        "Longitude": "120.743317",
        "Latitude": "21.946159"
    },
    {
        "OID": "350",
        "Name": "滿州沙灘停車場",
        "Type": "泊點",
        "HotWater": "1",
        "Toilet": "0",
        "Longitude": "120.8396932",
        "Latitude": "21.9575418"
    },
    {
        "OID": "351",
        "Name": "石珠休息區",
        "Type": "泊點",
        "HotWater": "1",
        "Toilet": "0",
        "Longitude": "120.6957807",
        "Latitude": "22.0045444"
    },
    {
        "OID": "352",
        "Name": "涼山休憩區（大客車停車場）",
        "Type": "泊點",
        "HotWater": "1",
        "Toilet": "1",
        "Longitude": "120.6376186",
        "Latitude": "22.6863987"
    },
    {
        "OID": "353",
        "Name": "港口遊憩區",
        "Type": "泊點",
        "HotWater": "1",
        "Toilet": "0",
        "Longitude": "120.8461189",
        "Latitude": "21.9885659"
    },
    {
        "OID": "354",
        "Name": "旭海集會所",
        "Type": "泊點",
        "HotWater": "1",
        "Toilet": "0",
        "Longitude": "120.8799353",
        "Latitude": "22.1909133"
    },
    {
        "OID": "355",
        "Name": "夢幻湖停車場",
        "Type": "泊點",
        "HotWater": "0",
        "Toilet": "0",
        "Longitude": "121.562022",
        "Latitude": "25.168711"
    },
    {
        "OID": "356",
        "Name": "碧山巖停車場",
        "Type": "泊點",
        "HotWater": "1",
        "Toilet": "0",
        "Longitude": "121.5883967",
        "Latitude": "25.097159"
    },
    {
        "OID": "357",
        "Name": "東河橋遊憩區",
        "Type": "泊點",
        "HotWater": "1",
        "Toilet": "0",
        "Longitude": "121.30496",
        "Latitude": "22.9767343"
    },
    {
        "OID": "358",
        "Name": "向陽國家森林遊樂區遊客服務中心",
        "Type": "泊點",
        "HotWater": "0",
        "Toilet": "0",
        "Longitude": "120.9852628",
        "Latitude": "23.2481884"
    },
    {
        "OID": "359",
        "Name": "國際地標(海濱公園)",
        "Type": "泊點",
        "HotWater": "1",
        "Toilet": "0",
        "Longitude": "121.164646",
        "Latitude": "22.753121"
    },
    {
        "OID": "360",
        "Name": "加路蘭遊憩區",
        "Type": "泊點",
        "HotWater": "1",
        "Toilet": "0",
        "Longitude": "121.196926",
        "Latitude": "22.806985"
    },
    {
        "OID": "361",
        "Name": "琵琶湖",
        "Type": "泊點",
        "HotWater": "1",
        "Toilet": "0",
        "Longitude": "121.1665645",
        "Latitude": "22.7557212"
    },
    {
        "OID": "362",
        "Name": "日昇台",
        "Type": "泊點",
        "HotWater": "1",
        "Toilet": "0",
        "Longitude": "120.9956788",
        "Latitude": "22.6159725"
    },
    {
        "OID": "363",
        "Name": "三和海濱公園",
        "Type": "泊點",
        "HotWater": "1",
        "Toilet": "0",
        "Longitude": "121.0357268",
        "Latitude": "22.6699251"
    },
    {
        "OID": "364",
        "Name": "烏石鼻港",
        "Type": "泊點",
        "HotWater": "1",
        "Toilet": "0",
        "Longitude": "121.4171192",
        "Latitude": "23.2277309"
    },
    {
        "OID": "365",
        "Name": "孚佑宮 牌樓",
        "Type": "泊點",
        "HotWater": "1",
        "Toilet": "1",
        "Longitude": "120.5025121",
        "Latitude": "23.2752331"
    },
    {
        "OID": "366",
        "Name": "台南市南區親水公園",
        "Type": "泊點",
        "HotWater": "1",
        "Toilet": "0",
        "Longitude": "120.175242",
        "Latitude": "22.9204521"
    },
    {
        "OID": "367",
        "Name": "台灣黑面琵鷺保育學會 Black-Faced Spoonbill Conservation Association",
        "Type": "泊點",
        "HotWater": "1",
        "Toilet": "0",
        "Longitude": "120.111036",
        "Latitude": "23.182815"
    },
    {
        "OID": "368",
        "Name": "天鵝湖公園",
        "Type": "泊點",
        "HotWater": "1",
        "Toilet": "0",
        "Longitude": "120.317657",
        "Latitude": "23.330827"
    },
    {
        "OID": "369",
        "Name": "環保運動公園停車場",
        "Type": "泊點",
        "HotWater": "1",
        "Toilet": "0",
        "Longitude": "120.5518926",
        "Latitude": "24.1581084"
    },
    {
        "OID": "370",
        "Name": "鐵砧山風景區停車場",
        "Type": "泊點",
        "HotWater": "1",
        "Toilet": "0",
        "Longitude": "120.645808",
        "Latitude": "24.357823"
    },
    {
        "OID": "371",
        "Name": "鐵砧山風景區遊客服務中心",
        "Type": "泊點",
        "HotWater": "1",
        "Toilet": "0",
        "Longitude": "120.6500586",
        "Latitude": "24.3592113"
    },
    {
        "OID": "372",
        "Name": "泰安派出所",
        "Type": "泊點",
        "HotWater": "0",
        "Toilet": "0",
        "Longitude": "120.7516176",
        "Latitude": "24.3245029"
    },
    {
        "OID": "373",
        "Name": "保安尊王廟",
        "Type": "泊點",
        "HotWater": "1",
        "Toilet": "0",
        "Longitude": "120.5894746",
        "Latitude": "24.284238"
    },
    {
        "OID": "374",
        "Name": "西安朝天宮",
        "Type": "泊點",
        "HotWater": "1",
        "Toilet": "0",
        "Longitude": "120.5494773",
        "Latitude": "24.3081588"
    },
    {
        "OID": "375",
        "Name": "新田登山步道停車場",
        "Type": "泊點",
        "HotWater": "1",
        "Toilet": "0",
        "Longitude": "120.7379079",
        "Latitude": "24.214087"
    },
    {
        "OID": "376",
        "Name": "立法院中部辦公室",
        "Type": "泊點",
        "HotWater": "1",
        "Toilet": "0",
        "Longitude": "120.699866",
        "Latitude": "24.0539879"
    },
    {
        "OID": "377",
        "Name": "潮洋環保公園",
        "Type": "泊點",
        "HotWater": "1",
        "Toilet": "0",
        "Longitude": "120.6317094",
        "Latitude": "24.1659227"
    },
    {
        "OID": "378",
        "Name": "台中都會公園南側停車場",
        "Type": "泊點",
        "HotWater": "1",
        "Toilet": "0",
        "Longitude": "120.5988298",
        "Latitude": "24.2051574"
    },
    {
        "OID": "379",
        "Name": "北側停車場",
        "Type": "泊點",
        "HotWater": "1",
        "Toilet": "0",
        "Longitude": "120.5985868",
        "Latitude": "24.2106472"
    },
    {
        "OID": "380",
        "Name": "白冷圳紀念公園",
        "Type": "泊點",
        "HotWater": "1",
        "Toilet": "0",
        "Longitude": "120.8294705",
        "Latitude": "24.1679707"
    },
    {
        "OID": "381",
        "Name": "角板山公園",
        "Type": "泊點",
        "HotWater": "1",
        "Toilet": "0",
        "Longitude": "121.350744",
        "Latitude": "24.8139498"
    },
    {
        "OID": "382",
        "Name": "達觀山風景區停車場",
        "Type": "泊點",
        "HotWater": "1",
        "Toilet": "0",
        "Longitude": "121.3838869",
        "Latitude": "24.6802284"
    },
    {
        "OID": "383",
        "Name": "上巴陵停??",
        "Type": "泊點",
        "HotWater": "1",
        "Toilet": "0",
        "Longitude": "121.4057215",
        "Latitude": "24.6904323"
    },
    {
        "OID": "384",
        "Name": "龍米河濱公園",
        "Type": "泊點",
        "HotWater": "1",
        "Toilet": "0",
        "Longitude": "121.4438589",
        "Latitude": "25.1497949"
    },
    {
        "OID": "385",
        "Name": "無極天元宮停車場",
        "Type": "泊點",
        "HotWater": "1",
        "Toilet": "0",
        "Longitude": "121.4841839",
        "Latitude": "25.1869344"
    },
    {
        "OID": "386",
        "Name": "貢寮運動公園",
        "Type": "泊點",
        "HotWater": "1",
        "Toilet": "0",
        "Longitude": "121.9298328",
        "Latitude": "25.0288946"
    },
    {
        "OID": "387",
        "Name": "新北市貢寮區和美國民小學",
        "Type": "泊點",
        "HotWater": "1",
        "Toilet": "0",
        "Longitude": "121.9195247",
        "Latitude": "25.1123675"
    },
    {
        "OID": "388",
        "Name": "金沙灣停車場",
        "Type": "泊點",
        "HotWater": "1",
        "Toilet": "0",
        "Longitude": "121.9150606",
        "Latitude": "25.0754371"
    },
    {
        "OID": "389",
        "Name": "西靈巖寺",
        "Type": "泊點",
        "HotWater": "1",
        "Toilet": "0",
        "Longitude": "121.9211489",
        "Latitude": "25.1051051"
    },
    {
        "OID": "390",
        "Name": "龍洞漁港P",
        "Type": "泊點",
        "HotWater": "1",
        "Toilet": "0",
        "Longitude": "121.9140252",
        "Latitude": "25.1120914"
    },
    {
        "OID": "391",
        "Name": "龍興廟",
        "Type": "泊點",
        "HotWater": "1",
        "Toilet": "0",
        "Longitude": "121.9120939",
        "Latitude": "25.113625"
    },
    {
        "OID": "392",
        "Name": "遠望坑親水公園",
        "Type": "泊點",
        "HotWater": "1",
        "Toilet": "0",
        "Longitude": "121.929973",
        "Latitude": "25.0025291"
    },
    {
        "OID": "393",
        "Name": "昭惠廟P",
        "Type": "泊點",
        "HotWater": "1",
        "Toilet": "0",
        "Longitude": "121.9309983",
        "Latitude": "25.0271746"
    },
    {
        "OID": "394",
        "Name": "承天宮",
        "Type": "泊點",
        "HotWater": "1",
        "Toilet": "0",
        "Longitude": "121.644756",
        "Latitude": "25.225359"
    },
    {
        "OID": "395",
        "Name": "沙珠灣",
        "Type": "泊點",
        "HotWater": "1",
        "Toilet": "0",
        "Longitude": "121.6334715",
        "Latitude": "25.2391365"
    },
    {
        "OID": "396",
        "Name": "獅頭山公園",
        "Type": "泊點",
        "HotWater": "1",
        "Toilet": "0",
        "Longitude": "121.6457403",
        "Latitude": "25.2253258"
    },
    {
        "OID": "397",
        "Name": "南雅漁港安檢所",
        "Type": "泊點",
        "HotWater": "1",
        "Toilet": "0",
        "Longitude": "121.8883602",
        "Latitude": "25.120883"
    },
    {
        "OID": "398",
        "Name": "忠孝宮",
        "Type": "泊點",
        "HotWater": "1",
        "Toilet": "0",
        "Longitude": "121.810787",
        "Latitude": "25.132386"
    },
    {
        "OID": "399",
        "Name": "水湳洞威遠廟",
        "Type": "泊點",
        "HotWater": "1",
        "Toilet": "0",
        "Longitude": "121.8681456",
        "Latitude": "25.1203639"
    },
    {
        "OID": "400",
        "Name": "白雞行修宮",
        "Type": "泊點",
        "HotWater": "1",
        "Toilet": "0",
        "Longitude": "121.4018288",
        "Latitude": "24.9050964"
    },
    {
        "OID": "401",
        "Name": "陽明山二子坪遊客服務中心",
        "Type": "泊點",
        "HotWater": "1",
        "Toilet": "0",
        "Longitude": "121.5252407",
        "Latitude": "25.1860896"
    },
    {
        "OID": "402",
        "Name": "富貴角公園停車場",
        "Type": "泊點",
        "HotWater": "1",
        "Toilet": "0",
        "Longitude": "121.5402284",
        "Latitude": "25.2902959"
    },
    {
        "OID": "403",
        "Name": "獅子公園",
        "Type": "泊點",
        "HotWater": "1",
        "Toilet": "0",
        "Longitude": "121.705923",
        "Latitude": "25.175121"
    },
    {
        "OID": "404",
        "Name": "野柳保安宮",
        "Type": "泊點",
        "HotWater": "1",
        "Toilet": "0",
        "Longitude": "121.6880566",
        "Latitude": "25.2044411"
    },
    {
        "OID": "405",
        "Name": "拱北殿",
        "Type": "泊點",
        "HotWater": "1",
        "Toilet": "0",
        "Longitude": "121.6423278",
        "Latitude": "25.0943475"
    },
    {
        "OID": "406",
        "Name": "姜子寮公園",
        "Type": "泊點",
        "HotWater": "1",
        "Toilet": "1",
        "Longitude": "121.7104386",
        "Latitude": "25.0623933"
    },
    {
        "OID": "407",
        "Name": "寶二水庫小停車場",
        "Type": "泊點",
        "HotWater": "1",
        "Toilet": "0",
        "Longitude": "121.0564557",
        "Latitude": "24.7276731"
    },
    {
        "OID": "408",
        "Name": "獅山遊客中心停車場",
        "Type": "泊點",
        "HotWater": "1",
        "Toilet": "1",
        "Longitude": "121.0247142",
        "Latitude": "24.6551187"
    },
    {
        "OID": "409",
        "Name": "水濂洞P",
        "Type": "泊點",
        "HotWater": "1",
        "Toilet": "0",
        "Longitude": "121.02586",
        "Latitude": "24.6544036"
    },
    {
        "OID": "410",
        "Name": "合興火車站",
        "Type": "泊點",
        "HotWater": "1",
        "Toilet": "0",
        "Longitude": "121.15439",
        "Latitude": "24.716709"
    },
    {
        "OID": "411",
        "Name": "秀巒國小",
        "Type": "泊點",
        "HotWater": "1",
        "Toilet": "0",
        "Longitude": "121.285989",
        "Latitude": "24.6190319"
    },
    {
        "OID": "412",
        "Name": "惠民宮",
        "Type": "泊點",
        "HotWater": "1",
        "Toilet": "0",
        "Longitude": "120.9152023",
        "Latitude": "24.7859311"
    },
    {
        "OID": "413",
        "Name": "青青草原（草原路入口）",
        "Type": "泊點",
        "HotWater": "1",
        "Toilet": "0",
        "Longitude": "120.92531",
        "Latitude": "24.7727708"
    },
    {
        "OID": "414",
        "Name": "蓮花寺",
        "Type": "泊點",
        "HotWater": "1",
        "Toilet": "0",
        "Longitude": "120.9616172",
        "Latitude": "24.8765904"
    },
    {
        "OID": "415",
        "Name": "太平山收費站",
        "Type": "泊點",
        "HotWater": "1",
        "Toilet": "1",
        "Longitude": "121.499525",
        "Latitude": "24.5573333"
    },
    {
        "OID": "416",
        "Name": "冬山河生態綠舟",
        "Type": "泊點",
        "HotWater": "1",
        "Toilet": "0",
        "Longitude": "121.7885301",
        "Latitude": "24.6388068"
    },
    {
        "OID": "417",
        "Name": "黃帝神宮",
        "Type": "泊點",
        "HotWater": "1",
        "Toilet": "0",
        "Longitude": "121.7418264",
        "Latitude": "24.7989439"
    },
    {
        "OID": "418",
        "Name": "太平山莊P",
        "Type": "泊點",
        "HotWater": "1",
        "Toilet": "0",
        "Longitude": "121.5368289",
        "Latitude": "24.4923233"
    },
    {
        "OID": "419",
        "Name": "分洪堰風景區停車場",
        "Type": "泊點",
        "HotWater": "0",
        "Toilet": "0",
        "Longitude": "121.728027",
        "Latitude": "24.6867599"
    },
    {
        "OID": "420",
        "Name": "粉鳥林漁港P",
        "Type": "泊點",
        "HotWater": "1",
        "Toilet": "0",
        "Longitude": "121.8421742",
        "Latitude": "24.4973758"
    },
    {
        "OID": "421",
        "Name": "炮台山",
        "Type": "泊點",
        "HotWater": "1",
        "Toilet": "0",
        "Longitude": "121.856997",
        "Latitude": "24.593252"
    },
    {
        "OID": "422",
        "Name": "福德正神廟P",
        "Type": "泊點",
        "HotWater": "1",
        "Toilet": "0",
        "Longitude": "121.9031516",
        "Latitude": "24.9432715"
    },
    {
        "OID": "423",
        "Name": "大里遊客服務中心小型車停車場",
        "Type": "泊點",
        "HotWater": "1",
        "Toilet": "0",
        "Longitude": "121.9240663",
        "Latitude": "24.9688703"
    },
    {
        "OID": "424",
        "Name": "大里海岸P",
        "Type": "泊點",
        "HotWater": "1",
        "Toilet": "0",
        "Longitude": "121.9227907",
        "Latitude": "24.9656465"
    },
    {
        "OID": "425",
        "Name": "大溪漁港休閒公園",
        "Type": "泊點",
        "HotWater": "1",
        "Toilet": "0",
        "Longitude": "121.9016479",
        "Latitude": "24.9419323"
    },
    {
        "OID": "426",
        "Name": "石城縣界公園停車場",
        "Type": "泊點",
        "HotWater": "1",
        "Toilet": "1",
        "Longitude": "121.9596844",
        "Latitude": "24.9835633"
    },
    {
        "OID": "427",
        "Name": "冬山河青龍岸",
        "Type": "泊點",
        "HotWater": "1",
        "Toilet": "0",
        "Longitude": "121.814961",
        "Latitude": "24.669602"
    },
    {
        "OID": "428",
        "Name": "華山教育農園",
        "Type": "泊點",
        "HotWater": "1",
        "Toilet": "0",
        "Longitude": "120.611905",
        "Latitude": "23.597084"
    },
    {
        "OID": "429",
        "Name": "嘉南雲峰登山口停車場",
        "Type": "泊點",
        "HotWater": "1",
        "Toilet": "0",
        "Longitude": "120.7206195",
        "Latitude": "23.6131179"
    },
    {
        "OID": "430",
        "Name": "口湖遊客中心",
        "Type": "泊點",
        "HotWater": "1",
        "Toilet": "1",
        "Longitude": "120.182276",
        "Latitude": "23.5482068"
    },
    {
        "OID": "431",
        "Name": "觀夕平台P",
        "Type": "泊點",
        "HotWater": "0",
        "Toilet": "0",
        "Longitude": "120.1474124",
        "Latitude": "22.9906987"
    },
    {
        "OID": "432",
        "Name": "王功福海宮-天上聖母",
        "Type": "泊點",
        "HotWater": "1",
        "Toilet": "0",
        "Longitude": "120.334402",
        "Latitude": "23.953245"
    },
    {
        "OID": "433",
        "Name": "鞍馬山莊",
        "Type": "泊點",
        "HotWater": "1",
        "Toilet": "0",
        "Longitude": "121.0087391",
        "Latitude": "24.2549871"
    },
    {
        "OID": "434",
        "Name": "天池P 有廁有水",
        "Type": "泊點",
        "HotWater": "1",
        "Toilet": "0",
        "Longitude": "121.0292584",
        "Latitude": "24.2827875"
    },
    {
        "OID": "435",
        "Name": "珠湖登山口停車場",
        "Type": "泊點",
        "HotWater": "0",
        "Toilet": "0",
        "Longitude": "120.9119305",
        "Latitude": "24.3799841"
    },
    {
        "OID": "436",
        "Name": "大棟山停車場",
        "Type": "泊點",
        "HotWater": "0",
        "Toilet": "0",
        "Longitude": "120.71239",
        "Latitude": "23.5006902"
    },
    {
        "OID": "437",
        "Name": "馬那邦山登山步道第二停車場",
        "Type": "泊點",
        "HotWater": "0",
        "Toilet": "0",
        "Longitude": "120.8904449",
        "Latitude": "24.3740549"
    },
    {
        "OID": "438",
        "Name": "馬拉邦山第一停車場",
        "Type": "泊點",
        "HotWater": "1",
        "Toilet": "0",
        "Longitude": "120.887737",
        "Latitude": "24.378645"
    },
    {
        "OID": "439",
        "Name": "點 500",
        "Type": "泊點",
        "HotWater": "1",
        "Toilet": "0",
        "Longitude": "120.1578462",
        "Latitude": "22.9986467"
    },
    {
        "OID": "440",
        "Name": "免費停車場",
        "Type": "泊點",
        "HotWater": "1",
        "Toilet": "0",
        "Longitude": "120.1588705",
        "Latitude": "22.9987448"
    },
    {
        "OID": "441",
        "Name": "漁光島",
        "Type": "泊點",
        "HotWater": "0",
        "Toilet": "0",
        "Longitude": "120.1557128",
        "Latitude": "22.9809878"
    },
    {
        "OID": "442",
        "Name": "塭仔漁港觀景台",
        "Type": "泊點",
        "HotWater": "1",
        "Toilet": "0",
        "Longitude": "120.43796",
        "Latitude": "24.1258305"
    },
    {
        "OID": "443",
        "Name": "中興體育館停車場",
        "Type": "泊點",
        "HotWater": "0",
        "Toilet": "0",
        "Longitude": "120.7005617",
        "Latitude": "23.9430195"
    },
    {
        "OID": "444",
        "Name": "外澳觀景區",
        "Type": "泊點",
        "HotWater": "1",
        "Toilet": "0",
        "Longitude": "121.8450603",
        "Latitude": "24.8823974"
    },
    {
        "OID": "445",
        "Name": "烏石港",
        "Type": "泊點",
        "HotWater": "1",
        "Toilet": "0",
        "Longitude": "121.8374562",
        "Latitude": "24.8693546"
    },
    {
        "OID": "446",
        "Name": "新竹縣政府警察局橫山分局秀巒檢查哨",
        "Type": "泊點",
        "HotWater": "1",
        "Toilet": "0",
        "Longitude": "121.2844386",
        "Latitude": "24.6160793"
    },
    {
        "OID": "447",
        "Name": "蓮池潭風景區停車場",
        "Type": "泊點",
        "HotWater": "1",
        "Toilet": "0",
        "Longitude": "120.2982791",
        "Latitude": "22.6799894"
    },
    {
        "OID": "448",
        "Name": "高雄都會公園小客車停車場",
        "Type": "泊點",
        "HotWater": "1",
        "Toilet": "1",
        "Longitude": "120.306693",
        "Latitude": "22.735735"
    },
    {
        "OID": "449",
        "Name": "雙流國家森林遊樂區停車場",
        "Type": "泊點",
        "HotWater": "1",
        "Toilet": "1",
        "Longitude": "120.7960316",
        "Latitude": "22.2170394"
    },
    {
        "OID": "450",
        "Name": "野柳海洋世界",
        "Type": "泊點",
        "HotWater": "1",
        "Toilet": "0",
        "Longitude": "121.69136",
        "Latitude": "25.205185"
    },
    {
        "OID": "451",
        "Name": "花蓮遊客中心停車場",
        "Type": "泊點",
        "HotWater": "0",
        "Toilet": "0",
        "Longitude": "121.6030035",
        "Latitude": "23.9044433"
    },
    {
        "OID": "452",
        "Name": "荷苞山桐花公園",
        "Type": "泊點",
        "HotWater": "1",
        "Toilet": "1",
        "Longitude": "120.5864141",
        "Latitude": "23.6643274"
    },
    {
        "OID": "453",
        "Name": "楠梓運動場停車場",
        "Type": "泊點",
        "HotWater": "1",
        "Toilet": "0",
        "Longitude": "120.3325302",
        "Latitude": "22.7341716"
    },
    {
        "OID": "454",
        "Name": "古嚴寺",
        "Type": "泊點",
        "HotWater": "1",
        "Toilet": "0",
        "Longitude": "120.3901875",
        "Latitude": "22.7130884"
    },
    {
        "OID": "455",
        "Name": "天后宮",
        "Type": "泊點",
        "HotWater": "1",
        "Toilet": "0",
        "Longitude": "120.3600066",
        "Latitude": "22.7707143"
    },
    {
        "OID": "456",
        "Name": "遊艇碼頭",
        "Type": "泊點",
        "HotWater": "1",
        "Toilet": "1",
        "Longitude": "120.912222",
        "Latitude": "24.5905979"
    },
    {
        "OID": "457",
        "Name": "停車場",
        "Type": "泊點",
        "HotWater": "1",
        "Toilet": "0",
        "Longitude": "121.2415498",
        "Latitude": "25.1137454"
    },
    {
        "OID": "458",
        "Name": "東勢客家文化園區",
        "Type": "泊點",
        "HotWater": "1",
        "Toilet": "0",
        "Longitude": "120.83185",
        "Latitude": "24.25765"
    },
    {
        "OID": "459",
        "Name": "王功漁港旅客服務中心",
        "Type": "泊點",
        "HotWater": "1",
        "Toilet": "1",
        "Longitude": "120.3264476",
        "Latitude": "23.9696353"
    },
    {
        "OID": "460",
        "Name": "虎山岩遊憩區停車場",
        "Type": "泊點",
        "HotWater": "1",
        "Toilet": "0",
        "Longitude": "120.5601054",
        "Latitude": "24.0436826"
    },
    {
        "OID": "461",
        "Name": "土牛休閒運動公園",
        "Type": "泊點",
        "HotWater": "1",
        "Toilet": "0",
        "Longitude": "120.814217",
        "Latitude": "24.266931"
    },
    {
        "OID": "462",
        "Name": "風力活動公園",
        "Type": "泊點",
        "HotWater": "1",
        "Toilet": "0",
        "Longitude": "120.9277693",
        "Latitude": "24.8509445"
    },
    {
        "OID": "463",
        "Name": "梧棲漁港停車場",
        "Type": "泊點",
        "HotWater": "1",
        "Toilet": "0",
        "Longitude": "120.5240368",
        "Latitude": "24.293402"
    },
    {
        "OID": "464",
        "Name": "豆腐岬",
        "Type": "泊點",
        "HotWater": "1",
        "Toilet": "1",
        "Longitude": "121.8714394",
        "Latitude": "24.5838192"
    },
    {
        "OID": "465",
        "Name": "鹽寮海岸",
        "Type": "泊點",
        "HotWater": "1",
        "Toilet": "0",
        "Longitude": "121.6037393",
        "Latitude": "23.892165"
    },
    {
        "OID": "466",
        "Name": "龍鳳宮後殿停車場",
        "Type": "泊點",
        "HotWater": "1",
        "Toilet": "1",
        "Longitude": "120.8657107",
        "Latitude": "24.6945412"
    },
    {
        "OID": "467",
        "Name": "苗26芎蕉坪，香菇土地公廟",
        "Type": "泊點",
        "HotWater": "0",
        "Toilet": "0",
        "Longitude": "120.8856556",
        "Latitude": "24.5389155"
    },
    {
        "OID": "468",
        "Name": "北浦停車場",
        "Type": "泊點",
        "HotWater": "1",
        "Toilet": "0",
        "Longitude": "121.6242575",
        "Latitude": "24.0381902"
    },
    {
        "OID": "469",
        "Name": "七星潭驛站",
        "Type": "泊點",
        "HotWater": "1",
        "Toilet": "0",
        "Longitude": "121.6302475",
        "Latitude": "24.0283002"
    },
    {
        "OID": "470",
        "Name": "第二停車場",
        "Type": "泊點",
        "HotWater": "1",
        "Toilet": "0",
        "Longitude": "121.0169609",
        "Latitude": "22.6927352"
    },
    {
        "OID": "471",
        "Name": "斜張橋下停車場",
        "Type": "泊點",
        "HotWater": "1",
        "Toilet": "0",
        "Longitude": "120.4485708",
        "Latitude": "22.7576818"
    },
    {
        "OID": "472",
        "Name": "超峰寺 泊點",
        "Type": "泊點",
        "HotWater": "1",
        "Toilet": "0",
        "Longitude": "120.3414354",
        "Latitude": "22.8550642"
    },
    {
        "OID": "473",
        "Name": "龍山寺",
        "Type": "泊點",
        "HotWater": "0",
        "Toilet": "0",
        "Longitude": "120.3570566",
        "Latitude": "22.8397021"
    },
    {
        "OID": "474",
        "Name": "燕巢區活動中心公園",
        "Type": "泊點",
        "HotWater": "1",
        "Toilet": "0",
        "Longitude": "120.3618523",
        "Latitude": "22.7819411"
    },
    {
        "OID": "475",
        "Name": "停車場",
        "Type": "泊點",
        "HotWater": "1",
        "Toilet": "0",
        "Longitude": "121.1242113",
        "Latitude": "22.7915952"
    },
    {
        "OID": "476",
        "Name": "清龍宮",
        "Type": "泊點",
        "HotWater": "1",
        "Toilet": "0",
        "Longitude": "120.398443",
        "Latitude": "22.8115466"
    },
    {
        "OID": "477",
        "Name": "烏山頂泥火山",
        "Type": "泊點",
        "HotWater": "1",
        "Toilet": "0",
        "Longitude": "120.4059703",
        "Latitude": "22.7960326"
    },
    {
        "OID": "478",
        "Name": "北極殿",
        "Type": "泊點",
        "HotWater": "1",
        "Toilet": "0",
        "Longitude": "120.3754007",
        "Latitude": "22.7952948"
    },
    {
        "OID": "479",
        "Name": "昊天宮",
        "Type": "泊點",
        "HotWater": "1",
        "Toilet": "0",
        "Longitude": "120.4268842",
        "Latitude": "22.8192041"
    },
    {
        "OID": "480",
        "Name": "布洛灣",
        "Type": "泊點",
        "HotWater": "1",
        "Toilet": "1",
        "Longitude": "121.5745354",
        "Latitude": "24.1710796"
    },
    {
        "OID": "481",
        "Name": "長虹橋下停車場",
        "Type": "泊點",
        "HotWater": "1",
        "Toilet": "1",
        "Longitude": "121.490601",
        "Latitude": "23.4679161"
    },
    {
        "OID": "482",
        "Name": "東岳湧泉",
        "Type": "泊點",
        "HotWater": "1",
        "Toilet": "1",
        "Longitude": "121.8297841",
        "Latitude": "24.5249335"
    },
    {
        "OID": "483",
        "Name": "石門洞停車場",
        "Type": "泊點",
        "HotWater": "0",
        "Toilet": "0",
        "Longitude": "121.5697932",
        "Latitude": "25.2968544"
    },
    {
        "OID": "484",
        "Name": "旭海海邊，無廁無水",
        "Type": "泊點",
        "HotWater": "1",
        "Toilet": "0",
        "Longitude": "120.892526",
        "Latitude": "22.174791"
    },
    {
        "OID": "485",
        "Name": "岡山河堤公園",
        "Type": "泊點",
        "HotWater": "1",
        "Toilet": "0",
        "Longitude": "120.2947497",
        "Latitude": "22.7859602"
    },
    {
        "OID": "486",
        "Name": "渡船頭平面停車場",
        "Type": "泊點",
        "HotWater": "1",
        "Toilet": "1",
        "Longitude": "121.435313",
        "Latitude": "25.156885"
    },
    {
        "OID": "487",
        "Name": "阿公店水庫風景區管理處",
        "Type": "泊點",
        "HotWater": "1",
        "Toilet": "0",
        "Longitude": "120.356345",
        "Latitude": "22.8033083"
    },
    {
        "OID": "488",
        "Name": "峨眉湖停車場",
        "Type": "泊點",
        "HotWater": "1",
        "Toilet": "1",
        "Longitude": "120.980324",
        "Latitude": "24.6789245"
    },
    {
        "OID": "489",
        "Name": "花蓮縣政府警察局玉里分局觀音派出所",
        "Type": "泊點",
        "HotWater": "1",
        "Toilet": "0",
        "Longitude": "121.3582528",
        "Latitude": "23.3956688"
    },
    {
        "OID": "490",
        "Name": "南化遊客中心",
        "Type": "泊點",
        "HotWater": "0",
        "Toilet": "0",
        "Longitude": "120.4780912",
        "Latitude": "23.0366912"
    },
    {
        "OID": "491",
        "Name": "九寮溪停車場",
        "Type": "泊點",
        "HotWater": "1",
        "Toilet": "1",
        "Longitude": "121.6013682",
        "Latitude": "24.672997"
    },
    {
        "OID": "492",
        "Name": "７-１１維軒店",
        "Type": "泊點",
        "HotWater": "1",
        "Toilet": "0",
        "Longitude": "120.5956692",
        "Latitude": "22.3824702"
    },
    {
        "OID": "493",
        "Name": "武岫農圃",
        "Type": "泊點",
        "HotWater": "1",
        "Toilet": "0",
        "Longitude": "120.767662",
        "Latitude": "23.682327"
    },
    {
        "OID": "494",
        "Name": "好望角停車場",
        "Type": "泊點",
        "HotWater": "0",
        "Toilet": "0",
        "Longitude": "120.854863",
        "Latitude": "23.665262"
    },
    {
        "OID": "495",
        "Name": "雙溪熱帶林(雙溪熱帶森林遊樂園)",
        "Type": "泊點",
        "HotWater": "0",
        "Toilet": "0",
        "Longitude": "120.5926208",
        "Latitude": "22.9329872"
    },
    {
        "OID": "496",
        "Name": "天祝宮",
        "Type": "泊點",
        "HotWater": "1",
        "Toilet": "0",
        "Longitude": "121.8007099",
        "Latitude": "24.4460141"
    },
    {
        "OID": "497",
        "Name": "大崗山如意公園",
        "Type": "泊點",
        "HotWater": "0",
        "Toilet": "0",
        "Longitude": "120.3351511",
        "Latitude": "22.8519814"
    },
    {
        "OID": "498",
        "Name": "大崗山超峰寺",
        "Type": "泊點",
        "HotWater": "1",
        "Toilet": "0",
        "Longitude": "120.3423207",
        "Latitude": "22.8547648"
    },
    {
        "OID": "499",
        "Name": "草屯植物公園",
        "Type": "泊點",
        "HotWater": "1",
        "Toilet": "0",
        "Longitude": "120.693885",
        "Latitude": "23.977301"
    },
    {
        "OID": "500",
        "Name": "月眉糖廠停車場",
        "Type": "泊點",
        "HotWater": "1",
        "Toilet": "1",
        "Longitude": "120.6938991",
        "Latitude": "24.3138657"
    },